,City,Country,Latitude,Longitude,Time,Temperature (deg F),Humidity (%),Wind Speed (mph),Cloud Cover (%)
0,Lannion,FR,48.73,-3.46,2019-03-30 03:20:29,40.55,100.0,3.58,90.0
1,Kahului,US,20.89,-156.47,2019-03-30 03:13:40,75.22,58.0,13.87,40.0
2,Pointe-Noire,CG,-4.8,11.85,2019-03-30 03:00:00,78.8,88.0,8.05,20.0
3,Skala Fourkas,GR,40.0,23.38,2019-03-30 03:17:37,38.93,86.0,3.36,20.0
4,Mandera,ET,3.94,41.86,2019-03-30 03:17:17,73.99,15.0,7.05,0.0
5,Bowen,AU,-20.01,148.25,2019-03-30 03:19:15,87.15,70.0,8.05,90.0
6,Macusani,PE,-14.07,-70.43,2019-03-30 03:22:41,48.36,98.0,1.9,64.0
7,Muli,IN,22.62,71.45,2019-03-30 03:22:41,82.83,24.0,8.61,0.0
8,De-Kastri,RU,51.48,140.77,2019-03-30 03:22:42,24.24,98.0,4.36,68.0
9,Planeta Rica,CO,8.41,-75.58,2019-03-30 03:22:43,78.69,80.0,8.16,88.0
10,Zubtsov,RU,56.17,34.59,2019-03-30 03:22:45,32.34,89.0,11.41,0.0
11,Sabratah,LY,32.79,12.49,2019-03-30 03:22:45,58.44,100.0,8.5,76.0
12,Lai,CN,27.82,91.75,2019-03-30 03:22:47,50.97,40.0,1.68,0.0
13,Aripuana,BR,-9.17,-60.63,2019-03-30 03:22:49,75.18,96.0,2.01,88.0
14,Lukaya,UG,-0.15,31.87,2019-03-30 02:30:00,71.6,88.0,4.7,20.0
15,Lamin,GM,13.35,-16.43,2019-03-30 02:00:00,71.6,60.0,13.87,0.0
16,Ovre Ardal,NO,61.32,7.8,2019-03-30 03:22:51,28.65,85.0,5.37,88.0
17,Osterhofen,DE,48.7,13.02,2019-03-30 03:22:32,34.05,80.0,2.91,32.0
18,Deep River,CA,46.1,-77.49,2019-03-30 03:20:04,26.19,68.0,2.24,1.0
19,Constitucion,MX,23.99,-104.67,2019-03-30 02:52:00,71.6,12.0,10.29,5.0
20,Horki,BY,54.29,30.98,2019-03-30 03:23:02,35.76,89.0,10.4,0.0
21,Fushun,CN,41.89,123.95,2019-03-30 02:30:00,37.4,86.0,4.47,90.0
22,Otterup,DK,55.52,10.4,2019-03-30 03:12:04,39.99,92.0,14.99,0.0
23,Pangani,KE,-2.37,40.57,2019-03-30 03:23:03,79.41,94.0,4.14,0.0
24,Constantine,DZ,36.36,6.61,2019-03-30 02:30:00,42.8,87.0,2.24,20.0
25,Ustye,RU,58.76,27.79,2019-03-30 03:23:04,36.93,82.0,14.2,68.0
26,Belo Jardim,BR,-8.33,-36.42,2019-03-30 03:23:05,71.76,92.0,3.91,92.0
27,Kalanguy,RU,51.01,116.52,2019-03-30 03:23:05,27.21,44.0,4.36,0.0
28,Tongliao,CN,43.61,122.27,2019-03-30 03:23:05,32.88,73.0,21.47,88.0
29,Georgetown,GY,6.8,-58.16,2019-03-30 02:00:00,75.2,100.0,4.7,20.0
30,Borogontsy,RU,62.67,131.17,2019-03-30 03:23:06,21.63,52.0,3.8,0.0
31,Clyde River,CA,70.47,-68.59,2019-03-30 03:00:00,-4.01,83.0,19.46,90.0
32,Alcaniz,ES,41.05,-0.13,2019-03-30 03:15:14,37.42,78.0,3.13,0.0
33,Puerto Carreno,CO,6.19,-67.49,2019-03-30 02:00:00,80.6,88.0,2.68,75.0
34,Santa Vitoria,BR,-7.82,-67.03,2019-03-30 03:23:17,77.16,93.0,2.68,92.0
35,Dromolaxia,CY,34.88,33.59,2019-03-30 03:15:33,54.41,93.0,2.24,40.0
36,Jimma,ET,7.67,36.84,2019-03-30 03:23:18,55.83,96.0,1.34,68.0
37,Atikokan,CA,48.76,-91.62,2019-03-30 03:23:18,28.65,84.0,6.93,88.0
38,Chiredzi,ZW,-21.05,31.67,2019-03-30 03:23:19,71.67,71.0,9.73,8.0
39,Porto Torres,IT,40.84,8.4,2019-03-30 02:50:00,39.2,100.0,1.12,0.0
40,Provideniya,RU,64.42,-173.23,2019-03-30 03:16:09,33.24,93.0,15.66,88.0
41,Marquette,US,46.54,-87.4,2019-03-30 03:18:01,28.04,63.0,6.93,1.0
42,Okakarara,NA,-20.59,17.46,2019-03-30 03:23:21,61.59,93.0,2.57,92.0
43,Maraa,BR,-1.83,-65.37,2019-03-30 03:20:14,75.27,98.0,2.8,92.0
44,Churapcha,RU,62.0,132.43,2019-03-30 03:23:22,20.55,54.0,3.8,0.0
45,Pokhvistnevo,RU,53.65,52.12,2019-03-30 03:23:22,21.81,88.0,9.73,64.0
46,Megion,RU,61.04,76.11,2019-03-30 02:30:00,33.8,86.0,8.95,75.0
47,Zabol,IR,31.03,61.49,2019-03-30 03:00:00,57.2,62.0,16.11,0.0
48,Curaca,BR,-8.99,-39.91,2019-03-30 03:23:29,82.2,58.0,11.41,32.0
49,Farmington,US,36.73,-108.21,2019-03-30 03:21:49,39.27,17.0,10.29,1.0
50,Rio Verde de Mato Grosso,BR,-18.92,-54.84,2019-03-30 03:23:31,77.7,64.0,6.93,56.0
51,Ouadda,CF,8.07,22.4,2019-03-30 03:23:31,68.07,49.0,4.14,0.0
52,Sur,OM,22.57,59.53,2019-03-30 03:23:32,75.99,89.0,1.45,12.0
53,Jining,CN,35.41,116.58,2019-03-30 03:23:32,53.85,38.0,17.0,0.0
54,Canon City,US,39.46,-117.13,2019-03-30 03:23:33,27.57,43.0,2.57,8.0
55,Urucui,BR,-7.23,-44.56,2019-03-30 03:23:33,73.74,87.0,5.37,8.0
56,Sonoita,US,31.68,-110.66,2019-03-30 03:23:26,63.95,14.0,16.11,1.0
57,Goya,AR,-29.14,-59.27,2019-03-30 03:23:34,71.94,83.0,5.48,24.0
58,Ramgarh,IN,28.17,74.98,2019-03-30 03:23:34,79.95,40.0,4.7,0.0
59,Kamina,CD,-8.74,25.0,2019-03-30 03:23:35,67.71,88.0,3.02,20.0
60,Ust-Karsk,RU,52.71,118.82,2019-03-30 03:23:35,28.38,34.0,3.47,36.0
61,Pushkino,RU,56.01,37.85,2019-03-30 02:57:55,36.73,93.0,11.18,75.0
62,Nadym,RU,65.53,72.51,2019-03-30 03:23:36,30.9,96.0,11.74,80.0
63,Saquarema,BR,-22.93,-42.51,2019-03-30 02:00:00,75.2,83.0,4.7,40.0
64,Eldoret,KE,0.52,35.27,2019-03-30 02:00:00,57.2,76.0,9.17,0.0
65,Dillon,US,45.22,-112.64,2019-03-30 03:20:56,32.92,74.0,4.59,90.0
66,Nipawin,CA,53.36,-104.02,2019-03-30 03:00:00,28.4,68.0,4.7,1.0
67,Ippy,CF,6.26,21.2,2019-03-30 03:23:43,67.08,70.0,2.8,0.0
68,Tari,NG,12.41,4.49,2019-03-30 03:23:44,70.68,47.0,3.91,0.0
69,Potsdam,DE,52.4,13.06,2019-03-30 03:19:03,37.58,93.0,1.12,0.0
70,Tolu,US,35.81,-94.5,2019-03-30 03:23:11,63.12,77.0,14.99,90.0
71,Calama,CL,-22.46,-68.93,2019-03-30 02:00:00,57.2,79.0,8.05,0.0
72,Ardud,RO,47.64,22.89,2019-03-30 03:00:00,32.0,79.0,5.82,0.0
73,Pakenham,AU,-38.08,145.48,2019-03-30 03:23:34,54.21,51.0,27.51,40.0
74,Columbus,US,32.46,-84.99,2019-03-30 03:20:34,60.31,58.0,5.26,90.0
75,Murchison,AU,-36.62,145.22,2019-03-30 03:14:40,46.33,48.0,19.24,24.0
76,Hanna,CA,51.64,-111.93,2019-03-30 03:19:04,31.93,75.0,1.99,12.0
77,Sembakung,ID,3.82,117.25,2019-03-30 02:00:00,82.4,83.0,2.24,75.0
78,Barra,BR,-11.09,-43.14,2019-03-30 03:19:16,77.88,76.0,10.4,0.0
79,Galesong,ID,-5.32,119.37,2019-03-30 02:30:00,84.2,79.0,2.24,20.0
80,Les Escoumins,CA,48.35,-69.4,2019-03-30 03:23:56,11.01,70.0,2.91,0.0
81,Warwick,US,41.7,-71.42,2019-03-30 03:22:31,45.59,93.0,4.7,90.0
82,Bongandanga,CD,1.51,21.07,2019-03-30 03:19:01,70.5,99.0,2.13,92.0
83,Nancha,CN,47.14,129.26,2019-03-30 03:23:58,31.26,47.0,3.02,80.0
84,Miranda,CO,3.25,-76.23,2019-03-30 03:00:00,71.6,94.0,3.36,40.0
85,Paralimni,GR,40.99,23.67,2019-03-30 03:23:56,42.17,61.0,1.99,0.0
86,Chililabombwe,ZM,-12.37,27.84,2019-03-30 03:23:59,60.33,76.0,6.49,0.0
87,Anqing,CN,30.51,117.04,2019-03-30 03:24:00,60.96,72.0,12.64,0.0
88,Glace Bay,CA,46.2,-59.96,2019-03-30 03:20:04,37.44,93.0,9.17,90.0
89,Kaihua,CN,29.14,118.41,2019-03-30 03:22:45,65.28,76.0,3.91,0.0
90,Gandajika,CD,-6.75,23.95,2019-03-30 03:24:01,69.6,93.0,2.91,12.0
91,Rio Tinto,BR,-6.8,-35.08,2019-03-30 02:00:00,77.0,100.0,4.7,20.0
92,Timberlake,US,32.26,-81.31,2019-03-30 03:23:14,58.44,67.0,3.36,1.0
93,North Myrtle Beach,US,33.83,-78.68,2019-03-30 03:21:03,55.67,93.0,5.82,1.0
94,Shushtar,IR,32.05,48.86,2019-03-30 02:00:00,57.2,87.0,2.91,0.0
95,Corbelia,BR,-24.8,-53.31,2019-03-30 02:00:00,71.6,73.0,11.41,0.0
96,Mirnyy,RU,56.57,36.46,2019-03-30 03:24:10,32.88,90.0,11.63,0.0
97,Sangar,RU,63.92,127.47,2019-03-30 03:24:10,19.74,56.0,2.91,0.0
98,Sweetwater,US,32.47,-100.41,2019-03-30 03:20:54,68.47,68.0,19.46,1.0
99,Ocampo,PH,13.56,123.37,2019-03-30 03:24:11,83.91,71.0,6.04,0.0
100,Rondonopolis,BR,-16.46,-54.64,2019-03-30 03:24:11,76.98,80.0,2.57,44.0
101,Villa Carlos Paz,AR,-31.42,-64.5,2019-03-30 03:00:38,69.12,93.0,4.7,0.0
102,Touros,BR,-5.2,-35.46,2019-03-30 03:00:00,77.0,100.0,4.7,75.0
103,Siuna,NI,13.73,-84.78,2019-03-30 03:24:13,70.14,67.0,3.36,0.0
104,Teofilo Otoni,BR,-17.86,-41.51,2019-03-30 03:24:13,72.03,63.0,8.28,12.0
105,Taketa,JP,32.97,131.38,2019-03-30 03:00:00,61.66,59.0,5.82,75.0
106,Senanga,ZM,-16.1,23.3,2019-03-30 03:24:14,66.27,49.0,5.26,24.0
107,Mpika,ZM,-11.84,31.4,2019-03-30 03:24:14,58.26,83.0,7.16,0.0
108,Owando,CG,-0.49,15.91,2019-03-30 03:24:15,73.29,90.0,2.91,56.0
109,Mubarakpur,IN,26.09,83.29,2019-03-30 03:24:15,84.45,58.0,4.25,0.0
110,Riyadh,SA,24.63,46.72,2019-03-30 03:00:00,64.4,27.0,8.05,0.0
111,Aguas Vermelhas,BR,-15.75,-41.46,2019-03-30 03:24:16,68.88,87.0,9.06,64.0
112,Candelaria,CO,3.41,-76.35,2019-03-30 03:00:00,71.6,94.0,3.36,40.0
113,Laives,FR,46.65,4.85,2019-03-30 03:22:43,39.51,93.0,3.36,0.0
114,Khao Yoi,TH,13.24,99.82,2019-03-30 02:00:00,89.6,59.0,2.24,20.0
115,Casablanca,MA,33.6,-7.62,2019-03-30 03:00:00,56.71,100.0,0.78,40.0
116,Teya,MX,21.05,-89.07,2019-03-30 03:16:30,77.0,57.0,13.87,5.0
117,Richmond,CA,49.16,-123.14,2019-03-30 03:20:55,51.78,66.0,4.7,1.0
118,Senador Guiomard,BR,-10.15,-67.74,2019-03-30 02:00:00,73.4,100.0,2.24,20.0
119,Kuytun,RU,54.34,101.51,2019-03-30 03:24:25,33.24,74.0,3.36,0.0
120,Samana,EC,0.12,-76.97,2019-03-30 03:24:26,71.58,96.0,2.13,88.0
121,Lexington,US,38.05,-84.5,2019-03-30 03:21:04,55.49,76.0,6.93,90.0
122,Yagoua,CM,10.34,15.23,2019-03-30 03:24:27,73.74,45.0,6.38,0.0
123,Elat,CM,2.91,11.16,2019-03-30 03:24:27,69.51,96.0,2.35,92.0
124,Mount Isa,AU,-20.73,139.49,2019-03-30 02:30:00,86.0,37.0,17.22,0.0
125,Vanavara,RU,60.35,102.28,2019-03-30 03:24:27,29.28,69.0,3.69,0.0
126,Bull Savanna,JM,17.89,-77.59,2019-03-30 03:24:28,66.27,88.0,2.68,20.0
127,Bijie,CN,27.3,105.3,2019-03-30 03:24:28,58.71,92.0,3.36,92.0
128,Pasni,PK,25.26,63.48,2019-03-30 03:24:29,76.17,76.0,8.16,0.0
129,Haines Junction,CA,60.75,-137.51,2019-03-30 03:24:34,36.21,80.0,2.13,92.0
130,Verovice,CZ,49.54,18.11,2019-03-30 03:24:09,33.57,92.0,2.35,8.0
131,Mataura,NZ,-46.19,168.86,2019-03-30 03:10:06,66.99,76.0,1.01,0.0
132,Gayny,RU,60.3,54.33,2019-03-30 03:24:37,28.47,91.0,10.63,56.0
133,Thyolo,MW,-16.07,35.15,2019-03-30 03:24:38,59.34,90.0,2.35,20.0
134,Khuzdar,PK,27.8,66.62,2019-03-30 03:24:38,55.74,50.0,2.68,0.0
135,Djenne,ML,13.91,-4.55,2019-03-30 03:24:38,75.27,62.0,3.02,0.0
136,Alferrarede,PT,39.48,-8.18,2019-03-30 03:24:27,43.95,53.0,2.46,48.0
137,Zanjan,IR,36.67,48.48,2019-03-30 03:00:00,41.0,87.0,9.17,75.0
138,Ambilobe,MG,-13.19,49.05,2019-03-30 03:14:34,70.5,100.0,4.36,92.0
139,Armidale,AU,-30.51,151.67,2019-03-30 03:16:35,66.0,60.0,8.01,48.0
140,Mut,TR,36.64,33.44,2019-03-30 03:24:41,36.66,95.0,2.68,92.0
141,Teshie,GH,5.58,-0.11,2019-03-30 02:00:00,84.2,83.0,10.29,40.0
142,Louis Trichardt,ZA,-23.04,29.91,2019-03-30 03:24:42,66.36,92.0,4.59,20.0
143,Moroto,UG,2.53,34.66,2019-03-30 03:24:42,59.79,82.0,4.59,0.0
144,Gorom-Gorom,BF,14.45,-0.24,2019-03-30 03:24:43,73.65,66.0,2.68,0.0
145,Kifri,IQ,34.69,44.96,2019-03-30 03:24:47,57.0,62.0,11.3,100.0
146,Fort Nelson,CA,58.81,-122.69,2019-03-30 02:00:00,55.4,26.0,12.75,20.0
147,Niamey,NE,13.52,2.11,2019-03-30 02:00:00,84.2,62.0,3.36,0.0
148,Hami,CN,42.84,93.51,2019-03-30 03:24:51,54.75,47.0,9.06,0.0
149,Zevenaar,NL,51.94,6.08,2019-03-30 03:24:30,42.35,86.0,3.36,0.0
150,Naustdal,NO,61.51,5.72,2019-03-30 03:15:25,39.79,86.0,12.75,92.0
151,Bakchar,RU,57.02,82.07,2019-03-30 03:24:53,35.49,97.0,4.7,92.0
152,Paoua,CF,7.24,16.43,2019-03-30 03:24:54,66.9,70.0,2.68,8.0
153,Diofior,SN,14.19,-16.66,2019-03-30 03:00:00,69.76,49.0,11.41,0.0
154,Ende,ID,-8.84,121.65,2019-03-30 03:24:55,82.2,100.0,2.35,8.0
155,Chachapoyas,PE,-6.23,-77.87,2019-03-30 03:24:56,60.96,88.0,1.9,92.0
156,Gibara,CU,21.11,-76.13,2019-03-30 02:50:00,69.8,77.0,8.05,0.0
157,Juchipila,MX,21.41,-103.12,2019-03-30 03:24:58,59.97,31.0,3.47,0.0
158,Manuk Mangkaw,PH,4.8,119.85,2019-03-30 03:24:59,82.83,100.0,5.37,8.0
159,Pasinler,TR,39.98,41.67,2019-03-30 02:50:00,26.85,92.0,17.22,90.0
160,Oktyabrskoye,RU,56.73,85.44,2019-03-30 03:16:47,37.8,69.0,8.95,20.0
161,Lufkin,US,31.34,-94.73,2019-03-30 03:23:29,64.72,88.0,12.75,1.0
162,Lethem,GY,3.38,-59.8,2019-03-30 03:25:08,81.66,70.0,2.68,20.0
163,Nizhniy Ingash,RU,56.2,96.53,2019-03-30 03:25:08,35.85,53.0,7.72,8.0
164,Deneysville,ZA,-26.89,28.1,2019-03-30 03:25:09,56.73,100.0,9.62,0.0
165,Bichura,RU,50.59,107.6,2019-03-30 03:25:10,31.17,52.0,5.26,64.0
166,Tunceli,TR,39.11,39.55,2019-03-30 02:50:00,36.46,93.0,2.91,90.0
167,Minna,NG,9.62,6.55,2019-03-30 03:25:11,74.64,68.0,3.02,0.0
168,Abja-Paluoja,EE,58.13,25.36,2019-03-30 03:18:16,37.99,89.0,12.86,0.0
169,Saurimo,AO,-9.66,20.4,2019-03-30 03:25:11,64.38,87.0,2.35,0.0
170,Bogovina,RS,43.9,21.94,2019-03-30 03:00:00,39.2,55.0,4.7,0.0
171,Hermon,GB,51.96,-4.61,2019-03-30 03:24:03,38.57,100.0,3.36,90.0
172,Ferme-Neuve,CA,46.7,-75.45,2019-03-30 03:23:07,16.68,74.0,2.35,0.0
173,Mana,RS,43.52,20.24,2019-03-30 03:00:00,32.94,82.0,1.12,0.0
174,Araouane,ML,18.9,-3.53,2019-03-30 03:21:03,79.41,28.0,7.83,80.0
175,Riobamba,EC,-1.67,-78.65,2019-03-30 03:22:21,47.82,94.0,2.57,76.0
176,Namibe,AO,-15.19,12.15,2019-03-30 03:25:15,78.78,96.0,11.74,48.0
177,Pontes e Lacerda,BR,-15.23,-59.33,2019-03-30 03:25:15,71.94,94.0,2.35,24.0
178,Betafo,MG,-19.84,46.86,2019-03-30 03:25:16,57.18,92.0,4.14,12.0
179,Nigrita,GR,40.91,23.5,2019-03-30 03:25:06,42.87,86.0,3.36,20.0
180,Castanhal,BR,-1.29,-47.92,2019-03-30 03:00:00,77.0,94.0,4.7,75.0
181,Kenai,US,60.55,-151.26,2019-03-30 03:21:20,44.51,88.0,6.93,1.0
182,Acari,BR,-6.44,-36.64,2019-03-30 03:25:22,71.94,94.0,4.14,76.0
183,Lebanon,US,43.64,-72.25,2019-03-30 03:13:17,36.73,86.0,2.46,90.0
184,Champoton,MX,19.35,-90.72,2019-03-30 02:44:00,77.0,65.0,11.41,5.0
185,Culaman,PH,5.96,125.66,2019-03-30 03:00:00,91.4,46.0,11.41,20.0
186,Binga,ZW,-17.62,27.34,2019-03-30 03:25:24,77.16,61.0,9.95,0.0
187,Tbilisskaya,RU,45.36,40.19,2019-03-30 03:15:17,35.01,56.0,8.61,0.0
188,Saint George,GR,39.45,22.34,2019-03-30 03:23:19,40.3,93.0,3.58,20.0
189,Aklavik,CA,68.22,-135.01,2019-03-30 02:00:00,33.8,64.0,6.93,75.0
190,Karachi,PK,24.87,67.03,2019-03-30 02:55:00,77.0,50.0,7.16,0.0
191,Nizhniy Bestyakh,RU,61.96,129.91,2019-03-30 02:30:00,12.2,56.0,4.47,0.0
192,Heishan,CN,41.69,122.12,2019-03-30 03:25:28,37.56,89.0,16.78,92.0
193,Kidal,ML,18.44,1.41,2019-03-30 03:25:28,78.51,26.0,5.7,56.0
194,Rio Branco,BR,-9.98,-67.82,2019-03-30 03:00:00,75.2,100.0,2.24,0.0
195,Saint-Leu,RE,-21.15,55.28,2019-03-30 03:20:35,74.97,65.0,5.82,0.0
196,Anantapur,IN,14.68,77.61,2019-03-30 03:24:56,78.51,63.0,4.59,0.0
197,Pucara,BO,-21.7,-64.2,2019-03-30 02:00:00,66.2,72.0,1.57,20.0
198,San Carlos,VE,9.66,-68.59,2019-03-30 03:25:31,79.5,74.0,7.94,36.0
199,Geraldton,CA,49.72,-86.95,2019-03-30 02:00:00,26.6,58.0,10.29,40.0
200,San Borja,BO,-14.86,-66.75,2019-03-30 03:25:31,72.93,84.0,1.79,36.0
201,Bagdarin,RU,54.44,113.59,2019-03-30 03:25:36,22.71,30.0,4.36,0.0
202,Qesarya,IL,32.52,34.9,2019-03-30 03:23:10,57.49,82.0,5.82,40.0
203,Jutai,BR,-1.71,-47.89,2019-03-30 03:25:37,76.08,98.0,2.57,88.0
204,Bulawayo,ZW,-20.16,28.59,2019-03-30 03:25:37,59.88,91.0,4.92,0.0
205,Satana,IN,20.6,74.2,2019-03-30 03:25:38,82.2,37.0,4.36,0.0
206,Sabya,YE,16.19,43.1,2019-03-30 03:25:38,66.36,85.0,2.8,0.0
207,Sao Francisco,BR,-25.65,-53.85,2019-03-30 03:00:00,70.7,94.0,2.13,0.0
208,Kita,JP,35.76,139.74,2019-03-30 03:15:19,50.34,71.0,9.17,75.0
209,Pelym,RU,61.01,62.0,2019-03-30 03:25:40,27.48,87.0,5.14,0.0
210,Jalingo,NG,10.21,12.82,2019-03-30 03:25:41,72.3,61.0,5.14,0.0
211,Paddhari,IN,22.44,70.6,2019-03-30 03:24:38,84.99,51.0,9.06,8.0
212,Avarua,CK,-21.21,-159.78,2019-03-30 02:30:00,75.2,94.0,6.93,68.0
213,Muriwai Beach,NZ,-36.82,174.45,2019-03-30 03:25:34,73.02,57.0,18.34,92.0
214,Malegaon,IN,20.56,74.52,2019-03-30 03:25:48,82.2,37.0,4.36,0.0
215,Port Keats,AU,-14.25,129.55,2019-03-30 03:25:49,91.2,71.0,11.41,0.0
216,Glenwood Springs,US,39.55,-107.33,2019-03-30 03:20:19,28.63,67.0,4.7,40.0
217,Sarh,TD,9.14,18.39,2019-03-30 02:00:00,82.4,51.0,2.8,0.0
218,Zschopau,DE,50.75,13.07,2019-03-30 03:25:18,35.89,78.0,2.24,0.0
219,Merke,KZ,42.87,73.19,2019-03-30 03:25:51,30.9,95.0,1.68,88.0
220,Loreto,PY,-23.27,-57.32,2019-03-30 03:25:52,77.52,75.0,4.92,0.0
221,Ankazoabo,MG,-22.29,44.51,2019-03-30 03:25:58,69.6,85.0,2.13,20.0
222,Chegdomyn,RU,51.13,133.04,2019-03-30 03:25:59,25.77,48.0,3.58,24.0
223,Menongue,AO,-14.66,17.68,2019-03-30 03:26:00,66.27,70.0,3.02,20.0
224,Hrubieszow,PL,50.8,23.89,2019-03-30 03:26:01,39.63,93.0,9.4,0.0
225,Price,US,39.6,-110.81,2019-03-30 03:25:09,32.95,55.0,16.11,1.0
226,Danville,US,36.59,-79.4,2019-03-30 03:26:00,54.91,47.0,3.36,20.0
227,Mardin,TR,37.32,40.72,2019-03-30 02:50:00,50.0,100.0,11.41,90.0
228,Dumas,IN,21.09,72.71,2019-03-30 02:30:00,77.0,83.0,2.35,0.0
229,Ouango,CD,4.31,22.55,2019-03-30 03:26:08,72.3,93.0,3.69,12.0
230,Wellington,NZ,-41.29,174.78,2019-03-30 03:22:32,70.74,77.0,10.29,0.0
231,Broken Hill,AU,-31.97,141.45,2019-03-30 02:04:00,60.8,46.0,19.46,40.0
232,Bowling Green,US,36.99,-86.44,2019-03-30 03:21:49,59.88,55.0,8.05,40.0
233,Sola,NO,58.89,5.65,2019-03-30 03:25:02,43.48,93.0,5.82,90.0
234,Kuandian,CN,40.73,124.78,2019-03-30 03:26:11,35.4,77.0,5.14,92.0
235,Pereira Barreto,BR,-20.64,-51.11,2019-03-30 03:26:12,74.73,75.0,5.48,0.0
236,Cercal,PT,37.8,-8.67,2019-03-30 03:17:06,57.0,77.0,1.01,24.0
237,Birjand,IR,32.86,59.22,2019-03-30 03:00:00,44.6,52.0,9.17,0.0
238,Liberia,CR,10.63,-85.44,2019-03-30 03:00:00,82.4,58.0,9.17,0.0
239,Huntsville,US,34.73,-86.59,2019-03-30 03:23:25,60.08,59.0,5.82,1.0
240,Si Racha,TH,13.17,100.93,2019-03-30 03:24:27,90.43,62.0,11.41,20.0
241,Luderitz,NA,-26.65,15.16,2019-03-30 03:26:21,62.13,88.0,12.19,68.0
242,Kibala,TD,9.11,18.35,2019-03-30 02:00:00,82.4,51.0,2.8,0.0
243,Oksfjord,NO,70.24,22.35,2019-03-30 03:15:30,32.36,98.0,16.11,88.0
244,Manaure,CO,11.78,-72.45,2019-03-30 03:26:24,78.96,94.0,19.8,12.0
245,Otjiwarongo,NA,-20.46,16.65,2019-03-30 03:26:28,61.68,86.0,4.36,68.0
246,Kaura Namoda,NG,12.59,6.58,2019-03-30 03:26:31,70.68,44.0,5.48,0.0
247,Manicore,BR,-5.81,-61.3,2019-03-30 03:26:32,74.37,96.0,2.13,56.0
248,Umm Bab,QA,25.21,50.81,2019-03-30 02:56:00,66.2,72.0,12.75,75.0
249,Zuwarah,LY,32.93,12.08,2019-03-30 03:26:32,52.23,100.0,6.15,0.0
250,Seoul,KR,37.57,126.98,2019-03-30 03:10:00,44.62,75.0,3.36,75.0
251,Uusikaupunki,FI,60.8,21.41,2019-03-30 02:50:00,33.8,83.0,5.82,36.0
252,Riacho de Santana,BR,-13.61,-42.94,2019-03-30 03:26:35,74.01,78.0,11.41,8.0
253,Quelimane,MZ,-17.88,36.89,2019-03-30 02:00:00,77.0,88.0,5.37,0.0
254,Xapuri,BR,-10.65,-68.5,2019-03-30 03:26:37,75.99,84.0,3.58,48.0
255,Altar,MX,30.72,-111.84,2019-03-30 03:25:19,69.98,30.0,8.01,0.0
256,Zelenikovo,BG,41.66,25.33,2019-03-30 03:20:12,41.2,74.0,9.17,90.0
257,Mahajanga,MG,-15.72,46.32,2019-03-30 03:00:00,73.4,88.0,2.24,20.0
258,Nichinan,JP,31.65,131.31,2019-03-30 03:22:25,68.0,64.0,9.17,75.0
259,Katherine,AU,-14.47,132.26,2019-03-30 02:30:00,93.2,34.0,6.93,0.0
260,Colomiers,FR,43.61,1.33,2019-03-30 03:24:56,46.89,70.0,14.99,0.0
261,Xalpatlahuac,MX,17.47,-98.62,2019-03-30 03:26:50,57.99,81.0,2.68,0.0
262,Marystown,CA,47.17,-55.16,2019-03-30 03:26:50,32.25,95.0,17.67,32.0
263,Mogadouro,PT,41.34,-6.71,2019-03-30 03:26:51,35.31,80.0,2.35,0.0
264,Jurm,AF,36.86,70.83,2019-03-30 03:26:51,24.42,90.0,1.68,88.0
265,Gizo,IL,31.8,34.94,2019-03-30 03:26:27,57.27,82.0,5.82,40.0
266,Iisalmi,FI,63.56,27.19,2019-03-30 02:50:00,32.0,72.0,11.41,0.0
267,Sopelana,ES,43.38,-2.98,2019-03-30 03:25:09,51.22,36.0,9.17,0.0
268,Shamary,RU,57.34,58.22,2019-03-30 03:26:53,30.72,86.0,15.43,88.0
269,Merauke,ID,-8.49,140.4,2019-03-30 03:26:53,83.37,88.0,12.75,76.0
270,Mortka,RU,59.33,66.02,2019-03-30 03:26:53,33.06,92.0,5.93,24.0
271,Colesberg,ZA,-30.72,25.1,2019-03-30 03:26:58,48.54,68.0,2.01,0.0
272,Mandan,US,46.83,-100.89,2019-03-30 03:23:35,30.61,86.0,16.11,40.0
273,Languyan,FR,48.3,-3.83,2019-03-30 03:23:26,42.22,93.0,2.24,0.0
274,Tommot,RU,58.97,126.27,2019-03-30 03:26:59,21.36,58.0,3.58,0.0
275,Siaya,KE,0.06,34.29,2019-03-30 03:26:59,67.62,100.0,4.36,12.0
276,Florian,US,48.44,-96.63,2019-03-30 03:16:40,26.04,53.0,13.87,1.0
277,Pingdu,CN,36.79,119.95,2019-03-30 02:00:00,48.2,31.0,17.9,0.0
278,Pella,US,41.41,-92.92,2019-03-30 03:26:14,39.74,93.0,8.05,90.0
279,Nantucket,US,41.28,-70.1,2019-03-30 03:26:14,44.51,87.0,8.05,75.0
280,Juayua,SV,13.84,-89.75,2019-03-30 02:50:00,70.39,83.0,2.24,0.0
281,Colorines,MX,18.88,-96.98,2019-03-30 03:27:02,54.57,81.0,1.68,0.0
282,Meshcherino,RU,55.2,38.36,2019-03-30 03:25:55,36.39,93.0,6.71,75.0
283,Ha Tinh,VN,18.33,105.9,2019-03-30 03:27:04,76.35,100.0,6.04,8.0
284,Tandil,AR,-37.33,-59.14,2019-03-30 03:15:20,63.5,94.0,5.01,0.0
285,Umba,RU,66.69,34.34,2019-03-30 03:27:05,27.84,80.0,14.54,0.0
286,Peci,BA,44.63,16.79,2019-03-30 03:20:03,33.91,86.0,4.7,0.0
287,Fuerte Olimpo,BR,-21.04,-57.87,2019-03-30 03:27:06,75.45,84.0,2.91,0.0
288,Wuwei,CN,37.93,102.64,2019-03-30 03:27:11,39.81,40.0,3.91,0.0
289,Prachuap Khiri Khan,TH,11.81,99.79,2019-03-30 03:27:11,85.17,72.0,2.91,8.0
290,Elko,US,40.83,-115.76,2019-03-30 03:24:52,33.73,69.0,5.82,1.0
291,Tuensang,IN,26.24,94.81,2019-03-30 03:27:12,74.64,47.0,2.35,44.0
292,Gazojak,TM,41.19,61.4,2019-03-30 03:27:13,42.24,81.0,7.61,12.0
293,Dabat,ET,12.98,37.77,2019-03-30 03:27:14,51.33,81.0,2.8,0.0
294,Goose Creek,US,38.32,-85.65,2019-03-30 03:27:02,55.98,82.0,5.82,90.0
295,Beeville,US,28.4,-97.75,2019-03-30 03:25:46,69.08,77.0,8.05,1.0
296,Wick,GB,51.45,-2.43,2019-03-30 03:27:08,38.03,100.0,2.24,20.0
297,Palekh,RU,56.8,41.85,2019-03-30 03:27:17,34.41,94.0,15.66,92.0
298,Savinka,RU,50.08,47.1,2019-03-30 03:27:18,29.46,85.0,4.47,48.0
299,Jampur,PK,29.64,70.6,2019-03-30 03:27:19,70.05,38.0,11.41,0.0
300,Luang Prabang,LA,19.89,102.14,2019-03-30 02:00:00,68.0,77.0,2.24,75.0
301,Ust-Uda,RU,54.17,103.03,2019-03-30 03:27:21,30.9,79.0,3.02,56.0
302,Lavrentiya,RU,65.58,-170.99,2019-03-30 03:27:22,33.78,91.0,26.06,92.0
303,Kyabram,AU,-36.31,145.05,2019-03-30 03:14:40,57.0,48.0,19.24,24.0
304,Kostomuksha,RU,64.59,30.6,2019-03-30 03:27:24,28.83,67.0,8.72,0.0
305,Terra Roxa,BR,-20.79,-48.33,2019-03-30 03:00:00,71.6,73.0,6.93,0.0
306,Jawa,NG,12.81,11.04,2019-03-30 03:27:25,72.48,26.0,9.17,0.0
307,Kasongo-Lunda,CD,-6.48,16.82,2019-03-30 03:27:26,69.42,98.0,2.46,76.0
308,Nakhon Thai,TH,17.1,100.84,2019-03-30 02:00:00,84.29,48.0,3.36,20.0
309,Bidor,MY,4.11,101.29,2019-03-30 03:00:00,85.6,74.0,3.36,75.0
310,Luzhou,CN,28.89,105.45,2019-03-30 03:27:32,67.26,55.0,6.38,92.0
311,Calbuco,CL,-41.77,-73.13,2019-03-30 02:00:00,53.6,87.0,9.17,90.0
312,Ereymentau,KZ,51.62,73.1,2019-03-30 03:27:35,36.39,96.0,12.64,76.0
313,Diapaga,BF,12.07,1.79,2019-03-30 03:27:35,72.93,50.0,2.57,0.0
314,Glendive,US,47.11,-104.71,2019-03-30 02:56:00,30.2,80.0,8.05,20.0
315,Manggar,ID,-2.88,108.27,2019-03-30 03:27:37,85.98,93.0,3.91,20.0
316,Oktyabrskiy,RU,55.61,37.97,2019-03-30 03:25:55,36.73,93.0,6.71,75.0
317,Orapa,BW,-21.28,25.37,2019-03-30 03:27:38,77.16,41.0,13.09,68.0
318,Mar del Plata,AR,-46.43,-67.52,2019-03-30 03:26:57,60.33,56.0,12.41,0.0
319,Xian,ES,42.76,-8.49,2019-03-30 03:25:16,47.39,65.0,5.82,0.0
320,Kodiak,US,39.95,-94.76,2019-03-30 03:19:47,41.23,93.0,17.22,90.0
321,Panuco,MX,22.88,-102.54,2019-03-30 02:47:00,68.0,10.0,1.68,5.0
322,Asyut,EG,27.18,31.19,2019-03-30 02:00:00,62.6,51.0,11.41,40.0
323,Nakamura,JP,35.17,136.87,2019-03-30 03:27:01,59.31,71.0,3.36,75.0
324,Trincomalee,LK,8.58,81.23,2019-03-30 03:27:41,81.84,67.0,4.59,0.0
325,Asosa,ET,10.07,34.53,2019-03-30 03:27:42,59.07,57.0,2.57,0.0
326,Swan River,CA,52.11,-101.27,2019-03-30 03:27:46,24.78,55.0,5.7,20.0
327,Huarmey,PE,-10.07,-78.15,2019-03-30 03:27:47,66.36,81.0,2.91,64.0
328,MBour,SN,14.41,-16.97,2019-03-30 03:00:00,67.19,82.0,20.8,20.0
329,High Rock,BS,26.63,-78.28,2019-03-30 03:27:50,72.75,100.0,15.66,92.0
330,Wangaratta,AU,-36.36,146.32,2019-03-30 03:20:24,51.37,58.0,23.04,90.0
331,Amlame,TG,7.47,0.9,2019-03-30 03:27:51,76.17,83.0,6.38,8.0
332,Bataipora,BR,-22.3,-53.27,2019-03-30 03:27:52,73.74,67.0,7.27,0.0
333,Upernavik,GL,72.79,-56.15,2019-03-30 03:27:52,8.4,93.0,9.4,12.0
334,Imperia,IT,43.88,8.02,2019-03-30 03:26:22,44.87,53.0,13.87,0.0
335,Monterey,US,36.6,-121.89,2019-03-30 03:27:06,53.33,71.0,5.82,1.0
336,Douglas,US,58.28,-134.39,2019-03-30 02:56:00,47.19,61.0,3.36,20.0
337,Raca,RS,44.23,20.98,2019-03-30 03:00:00,32.0,73.0,1.12,0.0
338,Bira,RU,49.0,132.47,2019-03-30 03:27:57,28.29,38.0,1.57,8.0
339,Kyren,RU,51.68,102.13,2019-03-30 03:27:57,23.88,65.0,2.57,0.0
340,Williams Lake,CA,52.13,-122.14,2019-03-30 02:00:00,51.8,25.0,3.36,20.0
341,Pemba,MZ,-12.97,40.52,2019-03-30 03:00:00,75.2,94.0,5.82,20.0
342,Tevriz,RU,57.51,72.4,2019-03-30 03:28:00,34.23,98.0,5.14,92.0
343,Hella,IS,63.84,-20.4,2019-03-30 03:28:00,27.21,100.0,10.29,0.0
344,Baoning,CN,25.34,110.03,2019-03-30 02:00:00,69.8,68.0,4.59,75.0
345,Chesma,RU,53.81,60.65,2019-03-30 03:28:07,24.24,85.0,12.19,12.0
346,Didwana,IN,27.4,74.58,2019-03-30 03:28:07,81.03,36.0,4.7,0.0
347,Road Town,VG,18.42,-64.62,2019-03-30 03:27:12,76.8,78.0,3.36,1.0
348,Damietta,EG,31.42,31.81,2019-03-30 02:00:00,60.8,82.0,17.22,0.0
349,Gat,SN,14.69,-16.54,2019-03-30 03:00:00,66.2,82.0,20.8,20.0
350,Kommunisticheskiy,RU,61.68,64.48,2019-03-30 03:28:09,30.0,92.0,7.49,76.0
351,Djougou,BJ,9.71,1.67,2019-03-30 03:28:11,81.21,58.0,9.95,80.0
352,Kapchorwa,UG,1.4,34.45,2019-03-30 03:27:06,55.92,85.0,2.68,8.0
353,Tigzirt,DZ,36.57,4.2,2019-03-30 03:26:09,51.01,88.0,1.99,12.0
354,Karema,TZ,-6.82,30.44,2019-03-30 03:28:14,62.22,93.0,2.13,32.0
355,Fochville,ZA,-26.49,27.49,2019-03-30 03:24:57,60.49,65.0,1.99,0.0
356,Karasuk,RU,53.73,78.03,2019-03-30 03:28:17,35.85,96.0,12.64,76.0
357,Port-Gentil,GA,-0.72,8.78,2019-03-30 03:28:17,81.75,98.0,7.61,44.0
358,Dong Xoai,VN,11.53,106.92,2019-03-30 03:28:18,86.34,74.0,4.47,0.0
359,Hammerfest,NO,70.66,23.68,2019-03-30 02:50:00,32.0,100.0,41.38,88.0
360,Maningrida,AU,-12.05,134.23,2019-03-30 03:28:21,87.6,88.0,4.81,0.0
361,Xingyi,CN,24.19,102.82,2019-03-30 03:28:22,68.7,48.0,7.94,8.0
362,Kashan,IR,33.99,51.44,2019-03-30 02:00:00,53.6,62.0,2.57,0.0
363,Yuty,PY,-26.61,-56.25,2019-03-30 03:28:28,74.01,82.0,3.36,0.0
364,Kyabe,TD,9.45,18.94,2019-03-30 03:28:28,69.33,52.0,2.91,0.0
365,Kargat,RU,55.19,80.28,2019-03-30 03:28:29,35.4,95.0,12.64,88.0
366,Belfast,GB,54.6,-5.93,2019-03-30 03:25:06,47.62,87.0,4.7,12.0
367,Hithadhoo,MV,-0.6,73.08,2019-03-30 03:28:30,83.28,100.0,3.58,12.0
368,Fougamou,GA,-1.22,10.59,2019-03-30 03:28:31,75.18,96.0,2.13,88.0
369,Chemainus,CA,48.92,-123.72,2019-03-30 03:26:05,51.06,66.0,4.7,1.0
370,Iskilip,TR,40.73,34.47,2019-03-30 03:28:32,17.58,81.0,4.59,0.0
371,Port Lincoln,AU,-34.72,135.86,2019-03-30 03:28:32,62.31,88.0,15.43,68.0
372,Nioki,CD,-2.72,17.69,2019-03-30 03:28:34,75.0,96.0,2.46,36.0
373,Valls,ES,41.28,1.25,2019-03-30 03:28:02,42.73,81.0,6.93,32.0
374,Rafaela,AR,-31.25,-61.49,2019-03-30 03:17:11,73.98,61.0,1.01,92.0
375,Escarcega,MX,18.61,-90.75,2019-03-30 03:28:35,80.31,40.0,4.03,0.0
376,Karatu,TZ,-3.34,35.67,2019-03-30 03:28:38,64.11,100.0,4.36,76.0
377,Soritor,PE,-6.14,-77.1,2019-03-30 03:28:38,63.03,96.0,2.13,76.0
378,Maun,BW,-19.99,23.42,2019-03-30 03:00:00,66.2,72.0,1.12,0.0
379,Fort Carson,US,38.74,-104.79,2019-03-30 03:28:23,30.49,100.0,9.17,90.0
380,Ferrol,ES,43.48,-8.23,2019-03-30 03:21:12,47.59,81.0,5.82,0.0
381,Nikko,JP,36.75,139.62,2019-03-30 03:15:06,45.0,70.0,1.99,80.0
382,Rundu,NA,-17.91,19.77,2019-03-30 03:28:46,67.53,57.0,4.81,36.0
383,Ulaangom,MN,49.98,92.07,2019-03-30 03:28:49,28.92,80.0,1.57,0.0
384,Khanpur,PK,28.65,70.66,2019-03-30 03:28:50,70.32,60.0,11.74,0.0
385,Key Largo,US,25.09,-80.45,2019-03-30 03:24:54,71.56,68.0,12.64,75.0
386,Mangrol,IN,25.33,76.51,2019-03-30 02:00:00,75.2,41.0,2.24,0.0
387,Lanzhou,CN,36.06,103.82,2019-03-30 02:00:00,39.2,15.0,6.71,0.0
388,Kerema,PG,-7.96,145.78,2019-03-30 03:28:53,83.1,81.0,3.47,64.0
389,Black River,JM,18.03,-77.85,2019-03-30 03:16:05,76.5,65.0,9.17,20.0
390,Varzea da Palma,BR,-17.6,-44.73,2019-03-30 03:28:57,78.06,51.0,8.95,100.0
391,Chanhassen,US,44.86,-93.53,2019-03-30 03:28:53,34.77,51.0,3.36,1.0
392,La Esperanza,HN,14.31,-88.18,2019-03-30 01:56:00,75.2,50.0,14.99,1.0
393,Koutiala,ML,12.39,-5.46,2019-03-30 03:29:02,77.43,48.0,7.61,0.0
394,Hudson Bay,CA,52.86,-102.4,2019-03-30 03:29:02,23.97,64.0,3.8,8.0
395,Ayolas,PY,-27.39,-56.84,2019-03-30 03:29:02,75.99,81.0,6.04,0.0
396,Bonito,BR,-21.13,-56.49,2019-03-30 03:29:02,75.9,69.0,7.27,0.0
397,Thio,NC,-21.61,166.22,2019-03-30 03:00:00,89.6,55.0,13.87,20.0
398,Mercedes,UY,-33.25,-58.03,2019-03-30 03:29:09,69.96,82.0,8.72,24.0
399,Freeport,BS,26.54,-78.7,2019-03-30 03:29:10,71.31,100.0,13.2,80.0
400,Huambo,AO,-12.78,15.73,2019-03-30 03:29:10,56.01,92.0,2.57,32.0
401,Karangasem,ID,-6.7,108.49,2019-03-30 03:29:11,83.19,100.0,6.38,0.0
402,Imbituba,BR,-28.24,-48.67,2019-03-30 03:00:00,73.4,69.0,14.54,75.0
403,Gediz,TR,38.99,29.39,2019-03-30 02:50:00,27.0,69.0,8.99,0.0
404,Oussouye,SN,12.49,-16.54,2019-03-30 03:00:00,71.62,83.0,9.17,0.0
405,Dodge City,US,37.75,-100.02,2019-03-30 03:25:24,35.91,86.0,20.8,90.0
406,Zwedru,LR,6.07,-8.13,2019-03-30 03:29:12,74.1,92.0,3.36,32.0
407,Inirida,CO,3.87,-67.92,2019-03-30 03:29:12,72.48,98.0,2.13,88.0
408,Xuanwu,CN,32.07,118.81,2019-03-30 03:28:50,62.06,72.0,11.18,40.0
409,Pascagoula,US,30.37,-88.56,2019-03-30 03:28:20,64.45,82.0,6.93,1.0
410,Malindi,KE,-3.22,40.12,2019-03-30 03:29:14,79.14,95.0,1.23,12.0
411,Sevierville,US,35.87,-83.56,2019-03-30 03:24:33,56.62,55.0,4.92,90.0
412,Dores do Indaia,BR,-19.46,-45.6,2019-03-30 03:29:15,76.26,56.0,11.63,80.0
413,Yibin,CN,28.77,104.64,2019-03-30 03:29:16,60.6,94.0,5.7,92.0
414,La Union,GT,14.97,-89.29,2019-03-30 03:29:16,63.03,81.0,1.9,0.0
415,Aktau,KZ,43.65,51.16,2019-03-30 03:00:00,39.2,80.0,6.71,90.0
416,Bismarck,US,46.81,-100.78,2019-03-30 03:28:31,30.4,86.0,14.99,75.0
417,Masjid Tanah,MY,2.35,102.11,2019-03-30 03:00:00,86.5,70.0,2.24,75.0
418,Kieta,PG,-6.22,155.63,2019-03-30 03:29:25,83.37,94.0,5.82,68.0
419,Livingston,US,32.58,-88.19,2019-03-30 03:16:01,66.2,59.0,6.93,68.0
420,Ljubinje,BA,42.95,18.09,2019-03-30 03:00:00,53.64,46.0,2.24,0.0
421,Afsin,TR,38.25,36.91,2019-03-30 03:29:27,29.64,92.0,3.13,92.0
422,Alberton,ZA,-26.25,28.13,2019-03-30 03:27:08,61.03,82.0,5.82,0.0
423,Vieux Fort,LC,13.72,-60.95,2019-03-30 03:16:22,78.33,78.0,16.11,75.0
424,Japura,ID,-0.42,102.29,2019-03-30 03:29:30,78.96,89.0,2.91,80.0
425,Nuuk,GL,64.17,-51.74,2019-03-30 02:50:00,28.4,79.0,28.86,88.0
426,Kaniama,CD,-7.57,24.18,2019-03-30 03:29:31,65.46,93.0,2.24,8.0
427,Fairlie,US,33.31,-95.96,2019-03-30 03:29:24,69.8,64.0,9.17,90.0
428,Malpura,IN,26.29,75.37,2019-03-30 03:29:32,82.11,44.0,4.36,0.0
429,Krasne,UA,49.91,24.61,2019-03-30 03:00:00,41.0,93.0,4.47,90.0
430,Trinidad,UY,-33.52,-56.9,2019-03-30 03:27:01,64.56,89.0,4.36,0.0
431,Rohnert Park,US,38.34,-122.7,2019-03-30 03:29:32,52.83,87.0,9.17,1.0
432,Prieska,ZA,-29.67,22.74,2019-03-30 03:29:37,53.4,56.0,2.57,0.0
433,Peleduy,RU,59.63,112.75,2019-03-30 03:29:37,28.56,79.0,3.47,80.0
434,Santa Rosa de Aguan,HN,15.95,-85.71,2019-03-30 03:29:42,77.79,100.0,8.5,0.0
435,Bomet,KE,-0.78,35.34,2019-03-30 03:29:43,50.79,91.0,5.37,36.0
436,Mpraeso,GH,6.6,-0.73,2019-03-30 03:29:44,74.55,92.0,3.13,44.0
437,Katrineholm,SE,59.0,16.21,2019-03-30 03:29:33,42.3,81.0,17.22,0.0
438,Verkh-Chebula,RU,56.03,87.61,2019-03-30 03:29:45,44.04,32.0,4.36,68.0
439,Chitral,PK,35.85,71.79,2019-03-30 03:29:46,21.99,90.0,0.89,88.0
440,Antofagasta,CL,-23.65,-70.4,2019-03-30 03:00:00,62.6,82.0,10.29,0.0
441,Eyl,SO,7.98,49.82,2019-03-30 03:29:46,77.7,100.0,8.39,44.0
442,Namanga,KE,-2.55,36.79,2019-03-30 03:29:47,64.38,97.0,2.24,92.0
443,Naliya,IN,23.26,68.83,2019-03-30 03:29:47,75.36,64.0,10.63,0.0
444,Warrnambool,AU,-38.38,142.48,2019-03-30 03:17:07,57.0,68.0,17.45,92.0
445,Zachary,US,30.65,-91.16,2019-03-30 03:22:04,64.44,82.0,10.29,1.0
446,Karatau,KZ,43.18,70.46,2019-03-30 03:29:49,45.3,90.0,4.03,32.0
447,Springbok,ZA,-29.67,17.88,2019-03-30 03:29:49,56.1,59.0,2.68,0.0
448,Heide,DE,54.19,9.09,2019-03-30 03:25:48,37.17,100.0,3.36,0.0
449,Darab,IR,28.75,54.55,2019-03-30 03:29:51,35.4,61.0,0.34,56.0
450,Znamenskoye,RU,57.13,73.82,2019-03-30 03:29:51,33.78,97.0,7.61,88.0
451,Yairipok,IN,24.67,94.07,2019-03-30 03:00:00,68.0,56.0,2.35,20.0
452,Tranas,SE,58.04,14.98,2019-03-30 03:15:04,41.0,86.0,9.17,0.0
453,Karacakoy,TR,41.4,28.38,2019-03-30 03:27:36,43.59,71.0,17.22,40.0
454,Requena,ES,39.49,-1.1,2019-03-30 03:29:12,45.09,87.0,3.36,0.0
455,San Carlos de Bariloche,AR,-41.13,-71.31,2019-03-30 03:00:00,53.6,50.0,3.36,0.0
456,Karaton,ID,-6.34,106.1,2019-03-30 03:29:40,84.09,66.0,2.24,20.0
457,Katoro,TZ,-3.0,31.93,2019-03-30 03:30:00,63.12,94.0,2.57,88.0
458,Uromi,NG,6.71,6.33,2019-03-30 03:30:01,80.04,82.0,10.96,0.0
459,Palakkad,IN,10.77,76.65,2019-03-30 03:00:00,80.6,78.0,3.36,20.0
460,Balkhash,KZ,46.84,74.98,2019-03-30 03:00:00,44.6,87.0,8.39,75.0
461,Jerome,US,34.75,-112.11,2019-03-30 03:29:56,45.46,19.0,5.82,1.0
462,Chemax,MX,20.66,-87.94,2019-03-30 03:30:03,74.01,72.0,5.7,48.0
463,Jasidih,IN,24.51,86.65,2019-03-30 03:30:04,82.56,57.0,4.25,0.0
464,Masterton,NZ,-40.95,175.66,2019-03-30 03:16:11,71.01,62.0,8.99,24.0
465,Bridgetown,CA,44.84,-65.29,2019-03-30 03:15:56,43.65,87.0,5.82,90.0
466,Dustlik,UZ,40.53,68.03,2019-03-30 03:30:07,50.61,99.0,4.36,76.0
467,Wexford,US,40.63,-80.06,2019-03-30 03:30:06,51.76,93.0,4.7,90.0
468,Prince George,CA,53.92,-122.75,2019-03-30 03:20:19,43.56,34.0,3.36,1.0
469,Azle,US,32.9,-97.55,2019-03-30 03:25:45,67.96,68.0,9.17,40.0
470,Plaza de Caisan,PA,8.73,-82.82,2019-03-30 03:30:00,69.37,83.0,2.24,20.0
471,Wum,CM,6.39,10.08,2019-03-30 03:30:15,68.34,85.0,2.57,76.0
472,Gordeyevka,RU,52.96,31.97,2019-03-30 03:30:15,36.48,89.0,10.18,8.0
473,Ihosy,MG,-22.4,46.13,2019-03-30 03:30:15,62.22,91.0,2.68,48.0
474,Grootfontein,NA,-19.56,18.1,2019-03-30 03:30:16,62.94,92.0,4.7,76.0
475,Porterville,US,36.07,-119.02,2019-03-30 03:27:55,53.89,58.0,5.82,40.0
476,Cacapava do Sul,BR,-30.51,-53.49,2019-03-30 03:30:10,67.53,80.0,6.15,24.0
477,Belyye Berega,RU,53.21,34.66,2019-03-30 03:00:00,41.0,80.0,8.95,75.0
478,Manzil Kamil,TN,35.62,10.67,2019-03-30 03:11:12,50.34,87.0,6.93,75.0
479,Yeppoon,AU,-23.13,150.74,2019-03-30 02:30:00,84.2,70.0,6.93,40.0
480,Ondjiva,AO,-17.07,15.73,2019-03-30 03:30:18,64.92,91.0,11.41,64.0
481,Borger,NL,52.92,6.79,2019-03-30 03:27:18,39.7,100.0,1.12,20.0
482,Bawku,GH,11.06,-0.24,2019-03-30 03:30:19,79.14,52.0,4.92,20.0
483,Kuybysheve,UA,47.36,36.65,2019-03-30 03:30:19,32.43,87.0,9.51,48.0
484,Manitouwadge,CA,49.12,-85.84,2019-03-30 03:30:19,25.59,76.0,6.93,48.0
485,Bullhead City,US,35.15,-114.57,2019-03-30 03:28:35,62.87,12.0,9.17,1.0
486,Islamkot,PK,24.7,70.18,2019-03-30 03:30:20,81.66,25.0,9.73,0.0
487,Palana,RU,59.08,159.95,2019-03-30 03:30:20,29.91,69.0,4.03,12.0
488,Floro,NO,61.6,5.03,2019-03-30 03:25:27,39.67,86.0,12.75,92.0
489,Sokode,TG,8.98,1.13,2019-03-30 03:30:26,77.88,70.0,5.37,12.0
490,Hofn,IS,64.25,-15.21,2019-03-30 03:30:26,27.84,100.0,23.04,44.0
491,Murray Bridge,AU,-35.12,139.28,2019-03-30 03:30:06,60.33,54.0,5.01,92.0
492,Guanay,BO,-15.5,-67.88,2019-03-30 03:30:27,65.64,87.0,1.9,48.0
493,Murdochville,CA,48.96,-65.49,2019-03-30 03:30:27,23.79,73.0,10.4,88.0
494,Yancheng,CN,33.39,120.14,2019-03-30 03:30:28,56.19,50.0,13.2,0.0
495,Kingsville,US,39.45,-76.42,2019-03-30 03:30:26,54.81,76.0,4.7,90.0
496,Volksrust,ZA,-27.36,29.88,2019-03-30 03:30:29,46.11,91.0,3.13,20.0
497,Belousovka,KZ,50.13,82.52,2019-03-30 03:00:00,44.6,65.0,4.47,75.0
498,Belyy Yar,RU,53.6,91.39,2019-03-30 03:00:00,37.4,47.0,2.24,0.0
499,Yuncheng,CN,35.03,111.0,2019-03-30 03:30:31,54.03,37.0,3.47,0.0
500,San Joaquin,PH,10.59,122.14,2019-03-30 03:30:32,87.06,54.0,9.4,8.0
501,Arethousa,GR,40.74,23.59,2019-03-30 03:30:27,43.18,86.0,3.36,20.0
502,Awbari,LY,26.59,12.77,2019-03-30 03:30:32,48.9,55.0,6.71,0.0
503,San Quintin,PH,17.54,120.52,2019-03-30 03:30:33,88.68,45.0,4.03,0.0
504,Lujan,AR,-46.57,-67.67,2019-03-30 03:30:33,56.73,46.0,13.42,0.0
505,Gondar,PT,41.82,-8.78,2019-03-30 03:29:29,51.01,100.0,6.93,0.0
506,West Wendover,US,40.74,-114.07,2019-03-30 02:56:00,42.8,56.0,18.34,1.0
