Beginning data collection batch 1 at: 03/29/2019, 20:22:34
Request city: kusk at 03/29/2019, 20:22:35
HTTP Request Failed
Data does not meet criteria and will not be used.
Request city: lannion at 03/29/2019, 20:22:36
Response at 03/29/2019, 20:22:37
City: Lannion Country: FR Temp: 40.55 Humidity: 100.0 Wind: 3.58 Cloud cover: 90.0 Lat: 48.73 Lng: -3.46 Indicated time:  03/30/2019, 03:20 UTC
Success.  Appending data.
Request city: kahului at 03/29/2019, 20:22:37
Response at 03/29/2019, 20:22:37
City: Kahului Country: US Temp: 75.22 Humidity: 58.0 Wind: 13.87 Cloud cover: 40.0 Lat: 20.89 Lng: -156.47 Indicated time:  03/30/2019, 03:13 UTC
Success.  Appending data.
Request city: pointe-noire at 03/29/2019, 20:22:37
Response at 03/29/2019, 20:22:38
City: Pointe-Noire Country: CG Temp: 78.8 Humidity: 88.0 Wind: 8.05 Cloud cover: 20.0 Lat: -4.8 Lng: 11.85 Indicated time:  03/30/2019, 03:00 UTC
Success.  Appending data.
Request city: skala fourkas at 03/29/2019, 20:22:38
Response at 03/29/2019, 20:22:39
City: Skala Fourkas Country: GR Temp: 38.93 Humidity: 86.0 Wind: 3.36 Cloud cover: 20.0 Lat: 40.0 Lng: 23.38 Indicated time:  03/30/2019, 03:17 UTC
Success.  Appending data.
Request city: mandera at 03/29/2019, 20:22:39
Response at 03/29/2019, 20:22:39
City: Mandera Country: ET Temp: 73.99 Humidity: 15.0 Wind: 7.05 Cloud cover: 0.0 Lat: 3.94 Lng: 41.86 Indicated time:  03/30/2019, 03:17 UTC
Success.  Appending data.
Request city: bowen at 03/29/2019, 20:22:39
Response at 03/29/2019, 20:22:40
City: Bowen Country: AU Temp: 87.15 Humidity: 70.0 Wind: 8.05 Cloud cover: 90.0 Lat: -20.01 Lng: 148.25 Indicated time:  03/30/2019, 03:19 UTC
Success.  Appending data.
Request city: macusani at 03/29/2019, 20:22:40
Response at 03/29/2019, 20:22:40
City: Macusani Country: PE Temp: 48.36 Humidity: 98.0 Wind: 1.9 Cloud cover: 64.0 Lat: -14.07 Lng: -70.43 Indicated time:  03/30/2019, 03:22 UTC
Success.  Appending data.
Request city: muli at 03/29/2019, 20:22:40
Response at 03/29/2019, 20:22:41
City: Muli Country: IN Temp: 82.83 Humidity: 24.0 Wind: 8.61 Cloud cover: 0.0 Lat: 22.62 Lng: 71.45 Indicated time:  03/30/2019, 03:22 UTC
Success.  Appending data.
Request city: de-kastri at 03/29/2019, 20:22:41
Response at 03/29/2019, 20:22:41
City: De-Kastri Country: RU Temp: 24.24 Humidity: 98.0 Wind: 4.36 Cloud cover: 68.0 Lat: 51.48 Lng: 140.77 Indicated time:  03/30/2019, 03:22 UTC
Success.  Appending data.
Request city: planeta rica at 03/29/2019, 20:22:41
Response at 03/29/2019, 20:22:43
City: Planeta Rica Country: CO Temp: 78.69 Humidity: 80.0 Wind: 8.16 Cloud cover: 88.0 Lat: 8.41 Lng: -75.58 Indicated time:  03/30/2019, 03:22 UTC
Success.  Appending data.
Request city: zubtsov at 03/29/2019, 20:22:43
Response at 03/29/2019, 20:22:44
City: Zubtsov Country: RU Temp: 32.34 Humidity: 89.0 Wind: 11.41 Cloud cover: 0.0 Lat: 56.17 Lng: 34.59 Indicated time:  03/30/2019, 03:22 UTC
Success.  Appending data.
Request city: sabratah at 03/29/2019, 20:22:44
Response at 03/29/2019, 20:22:45
City: Sabratah Country: LY Temp: 58.44 Humidity: 100.0 Wind: 8.5 Cloud cover: 76.0 Lat: 32.79 Lng: 12.49 Indicated time:  03/30/2019, 03:22 UTC
Success.  Appending data.
Request city: san ignacio de sabaneta at 03/29/2019, 20:22:45
HTTP Request Failed
Data does not meet criteria and will not be used.
Request city: lai at 03/29/2019, 20:22:46
Response at 03/29/2019, 20:22:47
City: Lai Country: CN Temp: 50.97 Humidity: 40.0 Wind: 1.68 Cloud cover: 0.0 Lat: 27.82 Lng: 91.75 Indicated time:  03/30/2019, 03:22 UTC
Success.  Appending data.
Request city: aripuana at 03/29/2019, 20:22:47
Response at 03/29/2019, 20:22:48
City: Aripuana Country: BR Temp: 75.18 Humidity: 96.0 Wind: 2.01 Cloud cover: 88.0 Lat: -9.17 Lng: -60.63 Indicated time:  03/30/2019, 03:22 UTC
Success.  Appending data.
Request city: lukaya at 03/29/2019, 20:22:48
Response at 03/29/2019, 20:22:49
City: Lukaya Country: UG Temp: 71.6 Humidity: 88.0 Wind: 4.7 Cloud cover: 20.0 Lat: -0.15 Lng: 31.87 Indicated time:  03/30/2019, 02:30 UTC
Success.  Appending data.
Request city: lamin at 03/29/2019, 20:22:49
Response at 03/29/2019, 20:22:50
City: Lamin Country: GM Temp: 71.6 Humidity: 60.0 Wind: 13.87 Cloud cover: 0.0 Lat: 13.35 Lng: -16.43 Indicated time:  03/30/2019, 02:00 UTC
Success.  Appending data.
Request city: ovre ardal at 03/29/2019, 20:22:50
Response at 03/29/2019, 20:22:50
City: Ovre Ardal Country: NO Temp: 28.65 Humidity: 85.0 Wind: 5.37 Cloud cover: 88.0 Lat: 61.32 Lng: 7.8 Indicated time:  03/30/2019, 03:22 UTC
Success.  Appending data.
Request city: guajara-mirim at 03/29/2019, 20:22:50
HTTP Request Failed
Data does not meet criteria and will not be used.
Beginning data collection batch 2 at: 03/29/2019, 20:22:54
Request city: osterhofen at 03/29/2019, 20:22:55
Response at 03/29/2019, 20:22:56
City: Osterhofen Country: DE Temp: 34.05 Humidity: 80.0 Wind: 2.91 Cloud cover: 32.0 Lat: 48.7 Lng: 13.02 Indicated time:  03/30/2019, 03:22 UTC
Success.  Appending data.
Request city: kuche at 03/29/2019, 20:22:56
HTTP Request Failed
Data does not meet criteria and will not be used.
Request city: karamay at 03/29/2019, 20:22:56
HTTP Request Failed
Data does not meet criteria and will not be used.
Request city: deep river at 03/29/2019, 20:22:57
Response at 03/29/2019, 20:23:00
City: Deep River Country: CA Temp: 26.19 Humidity: 68.0 Wind: 2.24 Cloud cover: 1.0 Lat: 46.1 Lng: -77.49 Indicated time:  03/30/2019, 03:20 UTC
Success.  Appending data.
Request city: constitucion at 03/29/2019, 20:23:00
Response at 03/29/2019, 20:23:00
City: Constitucion Country: MX Temp: 71.6 Humidity: 12.0 Wind: 10.29 Cloud cover: 5.0 Lat: 23.99 Lng: -104.67 Indicated time:  03/30/2019, 02:52 UTC
Success.  Appending data.
Request city: doctor pedro p. pena at 03/29/2019, 20:23:00
HTTP Request Failed
Data does not meet criteria and will not be used.
Request city: galgani at 03/29/2019, 20:23:01
HTTP Request Failed
Data does not meet criteria and will not be used.
Request city: horki at 03/29/2019, 20:23:01
Response at 03/29/2019, 20:23:01
City: Horki Country: BY Temp: 35.76 Humidity: 89.0 Wind: 10.4 Cloud cover: 0.0 Lat: 54.29 Lng: 30.98 Indicated time:  03/30/2019, 03:23 UTC
Success.  Appending data.
Request city: fushun at 03/29/2019, 20:23:01
Response at 03/29/2019, 20:23:02
City: Fushun Country: CN Temp: 37.4 Humidity: 86.0 Wind: 4.47 Cloud cover: 90.0 Lat: 41.89 Lng: 123.95 Indicated time:  03/30/2019, 02:30 UTC
Success.  Appending data.
Request city: tumannyy at 03/29/2019, 20:23:02
HTTP Request Failed
Data does not meet criteria and will not be used.
Request city: otterup at 03/29/2019, 20:23:02
Response at 03/29/2019, 20:23:02
City: Otterup Country: DK Temp: 39.99 Humidity: 92.0 Wind: 14.99 Cloud cover: 0.0 Lat: 55.52 Lng: 10.4 Indicated time:  03/30/2019, 03:12 UTC
Success.  Appending data.
Request city: pangani at 03/29/2019, 20:23:02
Response at 03/29/2019, 20:23:03
City: Pangani Country: KE Temp: 79.41 Humidity: 94.0 Wind: 4.14 Cloud cover: 0.0 Lat: -2.37 Lng: 40.57 Indicated time:  03/30/2019, 03:23 UTC
Success.  Appending data.
Request city: constantine at 03/29/2019, 20:23:03
Response at 03/29/2019, 20:23:03
City: Constantine Country: DZ Temp: 42.8 Humidity: 87.0 Wind: 2.24 Cloud cover: 20.0 Lat: 36.36 Lng: 6.61 Indicated time:  03/30/2019, 02:30 UTC
Success.  Appending data.
Request city: ustye at 03/29/2019, 20:23:03
Response at 03/29/2019, 20:23:04
City: Ustye Country: RU Temp: 36.93 Humidity: 82.0 Wind: 14.2 Cloud cover: 68.0 Lat: 58.76 Lng: 27.79 Indicated time:  03/30/2019, 03:23 UTC
Success.  Appending data.
Request city: samandag at 03/29/2019, 20:23:04
HTTP Request Failed
Data does not meet criteria and will not be used.
Request city: belo jardim at 03/29/2019, 20:23:04
Response at 03/29/2019, 20:23:04
City: Belo Jardim Country: BR Temp: 71.76 Humidity: 92.0 Wind: 3.91 Cloud cover: 92.0 Lat: -8.33 Lng: -36.42 Indicated time:  03/30/2019, 03:23 UTC
Success.  Appending data.
Request city: kalanguy at 03/29/2019, 20:23:04
Response at 03/29/2019, 20:23:04
City: Kalanguy Country: RU Temp: 27.21 Humidity: 44.0 Wind: 4.36 Cloud cover: 0.0 Lat: 51.01 Lng: 116.52 Indicated time:  03/30/2019, 03:23 UTC
Success.  Appending data.
Request city: tongliao at 03/29/2019, 20:23:04
Response at 03/29/2019, 20:23:05
City: Tongliao Country: CN Temp: 32.88 Humidity: 73.0 Wind: 21.47 Cloud cover: 88.0 Lat: 43.61 Lng: 122.27 Indicated time:  03/30/2019, 03:23 UTC
Success.  Appending data.
Request city: georgetown at 03/29/2019, 20:23:05
Response at 03/29/2019, 20:23:05
City: Georgetown Country: GY Temp: 75.2 Humidity: 100.0 Wind: 4.7 Cloud cover: 20.0 Lat: 6.8 Lng: -58.16 Indicated time:  03/30/2019, 02:00 UTC
Success.  Appending data.
Request city: borogontsy at 03/29/2019, 20:23:05
Response at 03/29/2019, 20:23:06
City: Borogontsy Country: RU Temp: 21.63 Humidity: 52.0 Wind: 3.8 Cloud cover: 0.0 Lat: 62.67 Lng: 131.17 Indicated time:  03/30/2019, 03:23 UTC
Success.  Appending data.
Beginning data collection batch 3 at: 03/29/2019, 20:23:09
Request city: clyde river at 03/29/2019, 20:23:14
Response at 03/29/2019, 20:23:14
City: Clyde River Country: CA Temp: -4.01 Humidity: 83.0 Wind: 19.46 Cloud cover: 90.0 Lat: 70.47 Lng: -68.59 Indicated time:  03/30/2019, 03:00 UTC
Success.  Appending data.
Request city: alcaniz at 03/29/2019, 20:23:14
Response at 03/29/2019, 20:23:15
City: Alcaniz Country: ES Temp: 37.42 Humidity: 78.0 Wind: 3.13 Cloud cover: 0.0 Lat: 41.05 Lng: -0.13 Indicated time:  03/30/2019, 03:15 UTC
Success.  Appending data.
Request city: puerto carreno at 03/29/2019, 20:23:15
Response at 03/29/2019, 20:23:15
City: Puerto Carreno Country: CO Temp: 80.6 Humidity: 88.0 Wind: 2.68 Cloud cover: 75.0 Lat: 6.19 Lng: -67.49 Indicated time:  03/30/2019, 02:00 UTC
Success.  Appending data.
Request city: sentyabrskiy at 03/29/2019, 20:23:15
HTTP Request Failed
Data does not meet criteria and will not be used.
Request city: santa vitoria at 03/29/2019, 20:23:15
Response at 03/29/2019, 20:23:16
City: Santa Vitoria Country: BR Temp: 77.16 Humidity: 93.0 Wind: 2.68 Cloud cover: 92.0 Lat: -7.82 Lng: -67.03 Indicated time:  03/30/2019, 03:23 UTC
Success.  Appending data.
Request city: dromolaxia at 03/29/2019, 20:23:16
Response at 03/29/2019, 20:23:16
City: Dromolaxia Country: CY Temp: 54.41 Humidity: 93.0 Wind: 2.24 Cloud cover: 40.0 Lat: 34.88 Lng: 33.59 Indicated time:  03/30/2019, 03:15 UTC
Success.  Appending data.
Request city: bolonchen at 03/29/2019, 20:23:16
HTTP Request Failed
Data does not meet criteria and will not be used.
Request city: bajo baudo at 03/29/2019, 20:23:16
HTTP Request Failed
Data does not meet criteria and will not be used.
Request city: jimma at 03/29/2019, 20:23:17
Response at 03/29/2019, 20:23:17
City: Jimma Country: ET Temp: 55.83 Humidity: 96.0 Wind: 1.34 Cloud cover: 68.0 Lat: 7.67 Lng: 36.84 Indicated time:  03/30/2019, 03:23 UTC
Success.  Appending data.
Request city: atikokan at 03/29/2019, 20:23:17
Response at 03/29/2019, 20:23:18
City: Atikokan Country: CA Temp: 28.65 Humidity: 84.0 Wind: 6.93 Cloud cover: 88.0 Lat: 48.76 Lng: -91.62 Indicated time:  03/30/2019, 03:23 UTC
Success.  Appending data.
Request city: chiredzi at 03/29/2019, 20:23:18
Response at 03/29/2019, 20:23:18
City: Chiredzi Country: ZW Temp: 71.67 Humidity: 71.0 Wind: 9.73 Cloud cover: 8.0 Lat: -21.05 Lng: 31.67 Indicated time:  03/30/2019, 03:23 UTC
Success.  Appending data.
Request city: porto torres at 03/29/2019, 20:23:18
Response at 03/29/2019, 20:23:19
City: Porto Torres Country: IT Temp: 39.2 Humidity: 100.0 Wind: 1.12 Cloud cover: 0.0 Lat: 40.84 Lng: 8.4 Indicated time:  03/30/2019, 02:50 UTC
Success.  Appending data.
Request city: provideniya at 03/29/2019, 20:23:19
Response at 03/29/2019, 20:23:20
City: Provideniya Country: RU Temp: 33.24 Humidity: 93.0 Wind: 15.66 Cloud cover: 88.0 Lat: 64.42 Lng: -173.23 Indicated time:  03/30/2019, 03:16 UTC
Success.  Appending data.
Request city: marquette at 03/29/2019, 20:23:20
Response at 03/29/2019, 20:23:20
City: Marquette Country: US Temp: 28.04 Humidity: 63.0 Wind: 6.93 Cloud cover: 1.0 Lat: 46.54 Lng: -87.4 Indicated time:  03/30/2019, 03:18 UTC
Success.  Appending data.
Request city: okakarara at 03/29/2019, 20:23:20
Response at 03/29/2019, 20:23:21
City: Okakarara Country: NA Temp: 61.59 Humidity: 93.0 Wind: 2.57 Cloud cover: 92.0 Lat: -20.59 Lng: 17.46 Indicated time:  03/30/2019, 03:23 UTC
Success.  Appending data.
Request city: maraa at 03/29/2019, 20:23:21
Response at 03/29/2019, 20:23:21
City: Maraa Country: BR Temp: 75.27 Humidity: 98.0 Wind: 2.8 Cloud cover: 92.0 Lat: -1.83 Lng: -65.37 Indicated time:  03/30/2019, 03:20 UTC
Success.  Appending data.
Request city: churapcha at 03/29/2019, 20:23:21
Response at 03/29/2019, 20:23:21
City: Churapcha Country: RU Temp: 20.55 Humidity: 54.0 Wind: 3.8 Cloud cover: 0.0 Lat: 62.0 Lng: 132.43 Indicated time:  03/30/2019, 03:23 UTC
Success.  Appending data.
Request city: pokhvistnevo at 03/29/2019, 20:23:21
Response at 03/29/2019, 20:23:22
City: Pokhvistnevo Country: RU Temp: 21.81 Humidity: 88.0 Wind: 9.73 Cloud cover: 64.0 Lat: 53.65 Lng: 52.12 Indicated time:  03/30/2019, 03:23 UTC
Success.  Appending data.
Request city: megion at 03/29/2019, 20:23:22
Response at 03/29/2019, 20:23:22
City: Megion Country: RU Temp: 33.8 Humidity: 86.0 Wind: 8.95 Cloud cover: 75.0 Lat: 61.04 Lng: 76.11 Indicated time:  03/30/2019, 02:30 UTC
Success.  Appending data.
Request city: zabol at 03/29/2019, 20:23:22
Response at 03/29/2019, 20:23:24
City: Zabol Country: IR Temp: 57.2 Humidity: 62.0 Wind: 16.11 Cloud cover: 0.0 Lat: 31.03 Lng: 61.49 Indicated time:  03/30/2019, 03:00 UTC
Success.  Appending data.
Beginning data collection batch 4 at: 03/29/2019, 20:23:27
Request city: curaca at 03/29/2019, 20:23:28
Response at 03/29/2019, 20:23:29
City: Curaca Country: BR Temp: 82.2 Humidity: 58.0 Wind: 11.41 Cloud cover: 32.0 Lat: -8.99 Lng: -39.91 Indicated time:  03/30/2019, 03:23 UTC
Success.  Appending data.
Request city: guelavia at 03/29/2019, 20:23:29
HTTP Request Failed
Data does not meet criteria and will not be used.
Request city: farmington at 03/29/2019, 20:23:29
Response at 03/29/2019, 20:23:30
City: Farmington Country: US Temp: 39.27 Humidity: 17.0 Wind: 10.29 Cloud cover: 1.0 Lat: 36.73 Lng: -108.21 Indicated time:  03/30/2019, 03:21 UTC
Success.  Appending data.
Request city: mullaitivu at 03/29/2019, 20:23:30
HTTP Request Failed
Data does not meet criteria and will not be used.
Request city: rio verde de mato grosso at 03/29/2019, 20:23:30
Response at 03/29/2019, 20:23:30
City: Rio Verde de Mato Grosso Country: BR Temp: 77.7 Humidity: 64.0 Wind: 6.93 Cloud cover: 56.0 Lat: -18.92 Lng: -54.84 Indicated time:  03/30/2019, 03:23 UTC
Success.  Appending data.
Request city: ouadda at 03/29/2019, 20:23:30
Response at 03/29/2019, 20:23:31
City: Ouadda Country: CF Temp: 68.07 Humidity: 49.0 Wind: 4.14 Cloud cover: 0.0 Lat: 8.07 Lng: 22.4 Indicated time:  03/30/2019, 03:23 UTC
Success.  Appending data.
Request city: sur at 03/29/2019, 20:23:31
Response at 03/29/2019, 20:23:31
City: Sur Country: OM Temp: 75.99 Humidity: 89.0 Wind: 1.45 Cloud cover: 12.0 Lat: 22.57 Lng: 59.53 Indicated time:  03/30/2019, 03:23 UTC
Success.  Appending data.
Request city: jining at 03/29/2019, 20:23:31
Response at 03/29/2019, 20:23:31
City: Jining Country: CN Temp: 53.85 Humidity: 38.0 Wind: 17.0 Cloud cover: 0.0 Lat: 35.41 Lng: 116.58 Indicated time:  03/30/2019, 03:23 UTC
Success.  Appending data.
Request city: machali at 03/29/2019, 20:23:31
HTTP Request Failed
Data does not meet criteria and will not be used.
Request city: canon city at 03/29/2019, 20:23:32
Response at 03/29/2019, 20:23:32
City: Canon City Country: US Temp: 27.57 Humidity: 43.0 Wind: 2.57 Cloud cover: 8.0 Lat: 39.46 Lng: -117.13 Indicated time:  03/30/2019, 03:23 UTC
Success.  Appending data.
Request city: alashtar at 03/29/2019, 20:23:32
HTTP Request Failed
Data does not meet criteria and will not be used.
Request city: urucui at 03/29/2019, 20:23:32
Response at 03/29/2019, 20:23:33
City: Urucui Country: BR Temp: 73.74 Humidity: 87.0 Wind: 5.37 Cloud cover: 8.0 Lat: -7.23 Lng: -44.56 Indicated time:  03/30/2019, 03:23 UTC
Success.  Appending data.
Request city: azimur at 03/29/2019, 20:23:33
HTTP Request Failed
Data does not meet criteria and will not be used.
Request city: sonoita at 03/29/2019, 20:23:33
Response at 03/29/2019, 20:23:33
City: Sonoita Country: US Temp: 63.95 Humidity: 14.0 Wind: 16.11 Cloud cover: 1.0 Lat: 31.68 Lng: -110.66 Indicated time:  03/30/2019, 03:23 UTC
Success.  Appending data.
Request city: goya at 03/29/2019, 20:23:33
Response at 03/29/2019, 20:23:33
City: Goya Country: AR Temp: 71.94 Humidity: 83.0 Wind: 5.48 Cloud cover: 24.0 Lat: -29.14 Lng: -59.27 Indicated time:  03/30/2019, 03:23 UTC
Success.  Appending data.
Request city: ramgarh at 03/29/2019, 20:23:33
Response at 03/29/2019, 20:23:34
City: Ramgarh Country: IN Temp: 79.95 Humidity: 40.0 Wind: 4.7 Cloud cover: 0.0 Lat: 28.17 Lng: 74.98 Indicated time:  03/30/2019, 03:23 UTC
Success.  Appending data.
Request city: kamina at 03/29/2019, 20:23:34
Response at 03/29/2019, 20:23:34
City: Kamina Country: CD Temp: 67.71 Humidity: 88.0 Wind: 3.02 Cloud cover: 20.0 Lat: -8.74 Lng: 25.0 Indicated time:  03/30/2019, 03:23 UTC
Success.  Appending data.
Request city: ust-karsk at 03/29/2019, 20:23:34
Response at 03/29/2019, 20:23:34
City: Ust-Karsk Country: RU Temp: 28.38 Humidity: 34.0 Wind: 3.47 Cloud cover: 36.0 Lat: 52.71 Lng: 118.82 Indicated time:  03/30/2019, 03:23 UTC
Success.  Appending data.
Request city: pushkino at 03/29/2019, 20:23:34
Response at 03/29/2019, 20:23:35
City: Pushkino Country: RU Temp: 36.73 Humidity: 93.0 Wind: 11.18 Cloud cover: 75.0 Lat: 56.01 Lng: 37.85 Indicated time:  03/30/2019, 02:57 UTC
Success.  Appending data.
Request city: nadym at 03/29/2019, 20:23:35
Response at 03/29/2019, 20:23:35
City: Nadym Country: RU Temp: 30.9 Humidity: 96.0 Wind: 11.74 Cloud cover: 80.0 Lat: 65.53 Lng: 72.51 Indicated time:  03/30/2019, 03:23 UTC
Success.  Appending data.
Beginning data collection batch 5 at: 03/29/2019, 20:23:38
Request city: saquarema at 03/29/2019, 20:23:39
Response at 03/29/2019, 20:23:40
City: Saquarema Country: BR Temp: 75.2 Humidity: 83.0 Wind: 4.7 Cloud cover: 40.0 Lat: -22.93 Lng: -42.51 Indicated time:  03/30/2019, 02:00 UTC
Success.  Appending data.
Request city: sinkat at 03/29/2019, 20:23:40
HTTP Request Failed
Data does not meet criteria and will not be used.
Request city: eldoret at 03/29/2019, 20:23:40
Response at 03/29/2019, 20:23:41
City: Eldoret Country: KE Temp: 57.2 Humidity: 76.0 Wind: 9.17 Cloud cover: 0.0 Lat: 0.52 Lng: 35.27 Indicated time:  03/30/2019, 02:00 UTC
Success.  Appending data.
Request city: dillon at 03/29/2019, 20:23:41
Response at 03/29/2019, 20:23:41
City: Dillon Country: US Temp: 32.92 Humidity: 74.0 Wind: 4.59 Cloud cover: 90.0 Lat: 45.22 Lng: -112.64 Indicated time:  03/30/2019, 03:20 UTC
Success.  Appending data.
Request city: nipawin at 03/29/2019, 20:23:41
Response at 03/29/2019, 20:23:42
City: Nipawin Country: CA Temp: 28.4 Humidity: 68.0 Wind: 4.7 Cloud cover: 1.0 Lat: 53.36 Lng: -104.02 Indicated time:  03/30/2019, 03:00 UTC
Success.  Appending data.
Request city: ippy at 03/29/2019, 20:23:42
Response at 03/29/2019, 20:23:42
City: Ippy Country: CF Temp: 67.08 Humidity: 70.0 Wind: 2.8 Cloud cover: 0.0 Lat: 6.26 Lng: 21.2 Indicated time:  03/30/2019, 03:23 UTC
Success.  Appending data.
Request city: tari at 03/29/2019, 20:23:42
Response at 03/29/2019, 20:23:43
City: Tari Country: NG Temp: 70.68 Humidity: 47.0 Wind: 3.91 Cloud cover: 0.0 Lat: 12.41 Lng: 4.49 Indicated time:  03/30/2019, 03:23 UTC
Success.  Appending data.
Request city: potsdam at 03/29/2019, 20:23:43
Response at 03/29/2019, 20:23:44
City: Potsdam Country: DE Temp: 37.58 Humidity: 93.0 Wind: 1.12 Cloud cover: 0.0 Lat: 52.4 Lng: 13.06 Indicated time:  03/30/2019, 03:19 UTC
Success.  Appending data.
Request city: tolu at 03/29/2019, 20:23:44
Response at 03/29/2019, 20:23:45
City: Tolu Country: US Temp: 63.12 Humidity: 77.0 Wind: 14.99 Cloud cover: 90.0 Lat: 35.81 Lng: -94.5 Indicated time:  03/30/2019, 03:23 UTC
Success.  Appending data.
Request city: calama at 03/29/2019, 20:23:45
Response at 03/29/2019, 20:23:46
City: Calama Country: CL Temp: 57.2 Humidity: 79.0 Wind: 8.05 Cloud cover: 0.0 Lat: -22.46 Lng: -68.93 Indicated time:  03/30/2019, 02:00 UTC
Success.  Appending data.
Request city: ardud at 03/29/2019, 20:23:46
Response at 03/29/2019, 20:23:47
City: Ardud Country: RO Temp: 32.0 Humidity: 79.0 Wind: 5.82 Cloud cover: 0.0 Lat: 47.64 Lng: 22.89 Indicated time:  03/30/2019, 03:00 UTC
Success.  Appending data.
Request city: pakenham at 03/29/2019, 20:23:47
Response at 03/29/2019, 20:23:48
City: Pakenham Country: AU Temp: 54.21 Humidity: 51.0 Wind: 27.51 Cloud cover: 40.0 Lat: -38.08 Lng: 145.48 Indicated time:  03/30/2019, 03:23 UTC
Success.  Appending data.
Request city: columbus at 03/29/2019, 20:23:48
Response at 03/29/2019, 20:23:48
City: Columbus Country: US Temp: 60.31 Humidity: 58.0 Wind: 5.26 Cloud cover: 90.0 Lat: 32.46 Lng: -84.99 Indicated time:  03/30/2019, 03:20 UTC
Success.  Appending data.
Request city: murchison at 03/29/2019, 20:23:48
Response at 03/29/2019, 20:23:49
City: Murchison Country: AU Temp: 46.33 Humidity: 48.0 Wind: 19.24 Cloud cover: 24.0 Lat: -36.62 Lng: 145.22 Indicated time:  03/30/2019, 03:14 UTC
Success.  Appending data.
Request city: hanna at 03/29/2019, 20:23:49
Response at 03/29/2019, 20:23:49
City: Hanna Country: CA Temp: 31.93 Humidity: 75.0 Wind: 1.99 Cloud cover: 12.0 Lat: 51.64 Lng: -111.93 Indicated time:  03/30/2019, 03:19 UTC
Success.  Appending data.
Request city: sembakung at 03/29/2019, 20:23:49
Response at 03/29/2019, 20:23:50
City: Sembakung Country: ID Temp: 82.4 Humidity: 83.0 Wind: 2.24 Cloud cover: 75.0 Lat: 3.82 Lng: 117.25 Indicated time:  03/30/2019, 02:00 UTC
Success.  Appending data.
Request city: barra at 03/29/2019, 20:23:50
Response at 03/29/2019, 20:23:51
City: Barra Country: BR Temp: 77.88 Humidity: 76.0 Wind: 10.4 Cloud cover: 0.0 Lat: -11.09 Lng: -43.14 Indicated time:  03/30/2019, 03:19 UTC
Success.  Appending data.
Request city: galesong at 03/29/2019, 20:23:51
Response at 03/29/2019, 20:23:51
City: Galesong Country: ID Temp: 84.2 Humidity: 79.0 Wind: 2.24 Cloud cover: 20.0 Lat: -5.32 Lng: 119.37 Indicated time:  03/30/2019, 02:30 UTC
Success.  Appending data.
Beginning data collection batch 6 at: 03/29/2019, 20:23:54
Request city: les escoumins at 03/29/2019, 20:23:55
Response at 03/29/2019, 20:23:56
City: Les Escoumins Country: CA Temp: 11.01 Humidity: 70.0 Wind: 2.91 Cloud cover: 0.0 Lat: 48.35 Lng: -69.4 Indicated time:  03/30/2019, 03:23 UTC
Success.  Appending data.
Request city: warwick at 03/29/2019, 20:23:56
Response at 03/29/2019, 20:23:56
City: Warwick Country: US Temp: 45.59 Humidity: 93.0 Wind: 4.7 Cloud cover: 90.0 Lat: 41.7 Lng: -71.42 Indicated time:  03/30/2019, 03:22 UTC
Success.  Appending data.
Request city: bongandanga at 03/29/2019, 20:23:56
Response at 03/29/2019, 20:23:56
City: Bongandanga Country: CD Temp: 70.5 Humidity: 99.0 Wind: 2.13 Cloud cover: 92.0 Lat: 1.51 Lng: 21.07 Indicated time:  03/30/2019, 03:19 UTC
Success.  Appending data.
Request city: sakakah at 03/29/2019, 20:23:56
HTTP Request Failed
Data does not meet criteria and will not be used.
Request city: falaleu at 03/29/2019, 20:23:57
HTTP Request Failed
Data does not meet criteria and will not be used.
Request city: nancha at 03/29/2019, 20:23:57
Response at 03/29/2019, 20:23:57
City: Nancha Country: CN Temp: 31.26 Humidity: 47.0 Wind: 3.02 Cloud cover: 80.0 Lat: 47.14 Lng: 129.26 Indicated time:  03/30/2019, 03:23 UTC
Success.  Appending data.
Request city: ozgon at 03/29/2019, 20:23:57
HTTP Request Failed
Data does not meet criteria and will not be used.
Request city: miranda at 03/29/2019, 20:23:57
Response at 03/29/2019, 20:23:58
City: Miranda Country: CO Temp: 71.6 Humidity: 94.0 Wind: 3.36 Cloud cover: 40.0 Lat: 3.25 Lng: -76.23 Indicated time:  03/30/2019, 03:00 UTC
Success.  Appending data.
Request city: paralimni at 03/29/2019, 20:23:58
Response at 03/29/2019, 20:23:58
City: Paralimni Country: GR Temp: 42.17 Humidity: 61.0 Wind: 1.99 Cloud cover: 0.0 Lat: 40.99 Lng: 23.67 Indicated time:  03/30/2019, 03:23 UTC
Success.  Appending data.
Request city: chililabombwe at 03/29/2019, 20:23:58
Response at 03/29/2019, 20:23:59
City: Chililabombwe Country: ZM Temp: 60.33 Humidity: 76.0 Wind: 6.49 Cloud cover: 0.0 Lat: -12.37 Lng: 27.84 Indicated time:  03/30/2019, 03:23 UTC
Success.  Appending data.
Request city: anqing at 03/29/2019, 20:23:59
Response at 03/29/2019, 20:23:59
City: Anqing Country: CN Temp: 60.96 Humidity: 72.0 Wind: 12.64 Cloud cover: 0.0 Lat: 30.51 Lng: 117.04 Indicated time:  03/30/2019, 03:24 UTC
Success.  Appending data.
Request city: glace bay at 03/29/2019, 20:23:59
Response at 03/29/2019, 20:24:00
City: Glace Bay Country: CA Temp: 37.44 Humidity: 93.0 Wind: 9.17 Cloud cover: 90.0 Lat: 46.2 Lng: -59.96 Indicated time:  03/30/2019, 03:20 UTC
Success.  Appending data.
Request city: kaihua at 03/29/2019, 20:24:00
Response at 03/29/2019, 20:24:00
City: Kaihua Country: CN Temp: 65.28 Humidity: 76.0 Wind: 3.91 Cloud cover: 0.0 Lat: 29.14 Lng: 118.41 Indicated time:  03/30/2019, 03:22 UTC
Success.  Appending data.
Request city: veletma at 03/29/2019, 20:24:00
HTTP Request Failed
Data does not meet criteria and will not be used.
Request city: gandajika at 03/29/2019, 20:24:00
Response at 03/29/2019, 20:24:01
City: Gandajika Country: CD Temp: 69.6 Humidity: 93.0 Wind: 2.91 Cloud cover: 12.0 Lat: -6.75 Lng: 23.95 Indicated time:  03/30/2019, 03:24 UTC
Success.  Appending data.
Request city: rio tinto at 03/29/2019, 20:24:01
Response at 03/29/2019, 20:24:01
City: Rio Tinto Country: BR Temp: 77.0 Humidity: 100.0 Wind: 4.7 Cloud cover: 20.0 Lat: -6.8 Lng: -35.08 Indicated time:  03/30/2019, 02:00 UTC
Success.  Appending data.
Request city: timberlake at 03/29/2019, 20:24:01
Response at 03/29/2019, 20:24:02
City: Timberlake Country: US Temp: 58.44 Humidity: 67.0 Wind: 3.36 Cloud cover: 1.0 Lat: 32.26 Lng: -81.31 Indicated time:  03/30/2019, 03:23 UTC
Success.  Appending data.
Request city: north myrtle beach at 03/29/2019, 20:24:02
Response at 03/29/2019, 20:24:02
City: North Myrtle Beach Country: US Temp: 55.67 Humidity: 93.0 Wind: 5.82 Cloud cover: 1.0 Lat: 33.83 Lng: -78.68 Indicated time:  03/30/2019, 03:21 UTC
Success.  Appending data.
Request city: shushtar at 03/29/2019, 20:24:02
Response at 03/29/2019, 20:24:03
City: Shushtar Country: IR Temp: 57.2 Humidity: 87.0 Wind: 2.91 Cloud cover: 0.0 Lat: 32.05 Lng: 48.86 Indicated time:  03/30/2019, 02:00 UTC
Success.  Appending data.
Request city: corbelia at 03/29/2019, 20:24:03
Response at 03/29/2019, 20:24:04
City: Corbelia Country: BR Temp: 71.6 Humidity: 73.0 Wind: 11.41 Cloud cover: 0.0 Lat: -24.8 Lng: -53.31 Indicated time:  03/30/2019, 02:00 UTC
Success.  Appending data.
Beginning data collection batch 7 at: 03/29/2019, 20:24:07
Request city: yandoon at 03/29/2019, 20:24:08
HTTP Request Failed
Data does not meet criteria and will not be used.
Request city: bobo dioulasso at 03/29/2019, 20:24:08
HTTP Request Failed
Data does not meet criteria and will not be used.
Request city: balykshi at 03/29/2019, 20:24:08
HTTP Request Failed
Data does not meet criteria and will not be used.
Request city: mirnyy at 03/29/2019, 20:24:09
Response at 03/29/2019, 20:24:10
City: Mirnyy Country: RU Temp: 32.88 Humidity: 90.0 Wind: 11.63 Cloud cover: 0.0 Lat: 56.57 Lng: 36.46 Indicated time:  03/30/2019, 03:24 UTC
Success.  Appending data.
Request city: sangar at 03/29/2019, 20:24:10
Response at 03/29/2019, 20:24:10
City: Sangar Country: RU Temp: 19.74 Humidity: 56.0 Wind: 2.91 Cloud cover: 0.0 Lat: 63.92 Lng: 127.47 Indicated time:  03/30/2019, 03:24 UTC
Success.  Appending data.
Request city: sweetwater at 03/29/2019, 20:24:10
Response at 03/29/2019, 20:24:10
City: Sweetwater Country: US Temp: 68.47 Humidity: 68.0 Wind: 19.46 Cloud cover: 1.0 Lat: 32.47 Lng: -100.41 Indicated time:  03/30/2019, 03:20 UTC
Success.  Appending data.
Request city: ocampo at 03/29/2019, 20:24:10
Response at 03/29/2019, 20:24:11
City: Ocampo Country: PH Temp: 83.91 Humidity: 71.0 Wind: 6.04 Cloud cover: 0.0 Lat: 13.56 Lng: 123.37 Indicated time:  03/30/2019, 03:24 UTC
Success.  Appending data.
Request city: rondonopolis at 03/29/2019, 20:24:11
Response at 03/29/2019, 20:24:11
City: Rondonopolis Country: BR Temp: 76.98 Humidity: 80.0 Wind: 2.57 Cloud cover: 44.0 Lat: -16.46 Lng: -54.64 Indicated time:  03/30/2019, 03:24 UTC
Success.  Appending data.
Request city: villa carlos paz at 03/29/2019, 20:24:11
Response at 03/29/2019, 20:24:11
City: Villa Carlos Paz Country: AR Temp: 69.12 Humidity: 93.0 Wind: 4.7 Cloud cover: 0.0 Lat: -31.42 Lng: -64.5 Indicated time:  03/30/2019, 03:00 UTC
Success.  Appending data.
Request city: touros at 03/29/2019, 20:24:11
Response at 03/29/2019, 20:24:11
City: Touros Country: BR Temp: 77.0 Humidity: 100.0 Wind: 4.7 Cloud cover: 75.0 Lat: -5.2 Lng: -35.46 Indicated time:  03/30/2019, 03:00 UTC
Success.  Appending data.
Request city: siuna at 03/29/2019, 20:24:11
Response at 03/29/2019, 20:24:12
City: Siuna Country: NI Temp: 70.14 Humidity: 67.0 Wind: 3.36 Cloud cover: 0.0 Lat: 13.73 Lng: -84.78 Indicated time:  03/30/2019, 03:24 UTC
Success.  Appending data.
Request city: teofilo otoni at 03/29/2019, 20:24:12
Response at 03/29/2019, 20:24:13
City: Teofilo Otoni Country: BR Temp: 72.03 Humidity: 63.0 Wind: 8.28 Cloud cover: 12.0 Lat: -17.86 Lng: -41.51 Indicated time:  03/30/2019, 03:24 UTC
Success.  Appending data.
Request city: taketa at 03/29/2019, 20:24:13
Response at 03/29/2019, 20:24:13
City: Taketa Country: JP Temp: 61.66 Humidity: 59.0 Wind: 5.82 Cloud cover: 75.0 Lat: 32.97 Lng: 131.38 Indicated time:  03/30/2019, 03:00 UTC
Success.  Appending data.
Request city: senanga at 03/29/2019, 20:24:13
Response at 03/29/2019, 20:24:13
City: Senanga Country: ZM Temp: 66.27 Humidity: 49.0 Wind: 5.26 Cloud cover: 24.0 Lat: -16.1 Lng: 23.3 Indicated time:  03/30/2019, 03:24 UTC
Success.  Appending data.
Request city: mpika at 03/29/2019, 20:24:13
Response at 03/29/2019, 20:24:14
City: Mpika Country: ZM Temp: 58.26 Humidity: 83.0 Wind: 7.16 Cloud cover: 0.0 Lat: -11.84 Lng: 31.4 Indicated time:  03/30/2019, 03:24 UTC
Success.  Appending data.
Request city: owando at 03/29/2019, 20:24:14
Response at 03/29/2019, 20:24:14
City: Owando Country: CG Temp: 73.29 Humidity: 90.0 Wind: 2.91 Cloud cover: 56.0 Lat: -0.49 Lng: 15.91 Indicated time:  03/30/2019, 03:24 UTC
Success.  Appending data.
Request city: mubarakpur at 03/29/2019, 20:24:14
Response at 03/29/2019, 20:24:14
City: Mubarakpur Country: IN Temp: 84.45 Humidity: 58.0 Wind: 4.25 Cloud cover: 0.0 Lat: 26.09 Lng: 83.29 Indicated time:  03/30/2019, 03:24 UTC
Success.  Appending data.
Request city: aflu at 03/29/2019, 20:24:14
HTTP Request Failed
Data does not meet criteria and will not be used.
Request city: riyadh at 03/29/2019, 20:24:15
Response at 03/29/2019, 20:24:15
City: Riyadh Country: SA Temp: 64.4 Humidity: 27.0 Wind: 8.05 Cloud cover: 0.0 Lat: 24.63 Lng: 46.72 Indicated time:  03/30/2019, 03:00 UTC
Success.  Appending data.
Request city: aguas vermelhas at 03/29/2019, 20:24:15
Response at 03/29/2019, 20:24:16
City: Aguas Vermelhas Country: BR Temp: 68.88 Humidity: 87.0 Wind: 9.06 Cloud cover: 64.0 Lat: -15.75 Lng: -41.46 Indicated time:  03/30/2019, 03:24 UTC
Success.  Appending data.
Beginning data collection batch 8 at: 03/29/2019, 20:24:19
Request city: candelaria at 03/29/2019, 20:24:19
Response at 03/29/2019, 20:24:21
City: Candelaria Country: CO Temp: 71.6 Humidity: 94.0 Wind: 3.36 Cloud cover: 40.0 Lat: 3.41 Lng: -76.35 Indicated time:  03/30/2019, 03:00 UTC
Success.  Appending data.
Request city: laives at 03/29/2019, 20:24:21
Response at 03/29/2019, 20:24:21
City: Laives Country: FR Temp: 39.51 Humidity: 93.0 Wind: 3.36 Cloud cover: 0.0 Lat: 46.65 Lng: 4.85 Indicated time:  03/30/2019, 03:22 UTC
Success.  Appending data.
Request city: khao yoi at 03/29/2019, 20:24:21
Response at 03/29/2019, 20:24:22
City: Khao Yoi Country: TH Temp: 89.6 Humidity: 59.0 Wind: 2.24 Cloud cover: 20.0 Lat: 13.24 Lng: 99.82 Indicated time:  03/30/2019, 02:00 UTC
Success.  Appending data.
Request city: casablanca at 03/29/2019, 20:24:22
Response at 03/29/2019, 20:24:23
City: Casablanca Country: MA Temp: 56.71 Humidity: 100.0 Wind: 0.78 Cloud cover: 40.0 Lat: 33.6 Lng: -7.62 Indicated time:  03/30/2019, 03:00 UTC
Success.  Appending data.
Request city: teya at 03/29/2019, 20:24:23
Response at 03/29/2019, 20:24:23
City: Teya Country: MX Temp: 77.0 Humidity: 57.0 Wind: 13.87 Cloud cover: 5.0 Lat: 21.05 Lng: -89.07 Indicated time:  03/30/2019, 03:16 UTC
Success.  Appending data.
Request city: richmond at 03/29/2019, 20:24:23
Response at 03/29/2019, 20:24:24
City: Richmond Country: CA Temp: 51.78 Humidity: 66.0 Wind: 4.7 Cloud cover: 1.0 Lat: 49.16 Lng: -123.14 Indicated time:  03/30/2019, 03:20 UTC
Success.  Appending data.
Request city: senador guiomard at 03/29/2019, 20:24:24
Response at 03/29/2019, 20:24:24
City: Senador Guiomard Country: BR Temp: 73.4 Humidity: 100.0 Wind: 2.24 Cloud cover: 20.0 Lat: -10.15 Lng: -67.74 Indicated time:  03/30/2019, 02:00 UTC
Success.  Appending data.
Request city: richard toll at 03/29/2019, 20:24:24
HTTP Request Failed
Data does not meet criteria and will not be used.
Request city: kuytun at 03/29/2019, 20:24:25
Response at 03/29/2019, 20:24:25
City: Kuytun Country: RU Temp: 33.24 Humidity: 74.0 Wind: 3.36 Cloud cover: 0.0 Lat: 54.34 Lng: 101.51 Indicated time:  03/30/2019, 03:24 UTC
Success.  Appending data.
Request city: samana at 03/29/2019, 20:24:25
Response at 03/29/2019, 20:24:25
City: Samana Country: EC Temp: 71.58 Humidity: 96.0 Wind: 2.13 Cloud cover: 88.0 Lat: 0.12 Lng: -76.97 Indicated time:  03/30/2019, 03:24 UTC
Success.  Appending data.
Request city: lexington at 03/29/2019, 20:24:25
Response at 03/29/2019, 20:24:26
City: Lexington Country: US Temp: 55.49 Humidity: 76.0 Wind: 6.93 Cloud cover: 90.0 Lat: 38.05 Lng: -84.5 Indicated time:  03/30/2019, 03:21 UTC
Success.  Appending data.
Request city: yagoua at 03/29/2019, 20:24:26
Response at 03/29/2019, 20:24:26
City: Yagoua Country: CM Temp: 73.74 Humidity: 45.0 Wind: 6.38 Cloud cover: 0.0 Lat: 10.34 Lng: 15.23 Indicated time:  03/30/2019, 03:24 UTC
Success.  Appending data.
Request city: elat at 03/29/2019, 20:24:26
Response at 03/29/2019, 20:24:26
City: Elat Country: CM Temp: 69.51 Humidity: 96.0 Wind: 2.35 Cloud cover: 92.0 Lat: 2.91 Lng: 11.16 Indicated time:  03/30/2019, 03:24 UTC
Success.  Appending data.
Request city: mount isa at 03/29/2019, 20:24:27
Response at 03/29/2019, 20:24:27
City: Mount Isa Country: AU Temp: 86.0 Humidity: 37.0 Wind: 17.22 Cloud cover: 0.0 Lat: -20.73 Lng: 139.49 Indicated time:  03/30/2019, 02:30 UTC
Success.  Appending data.
Request city: vanavara at 03/29/2019, 20:24:27
Response at 03/29/2019, 20:24:27
City: Vanavara Country: RU Temp: 29.28 Humidity: 69.0 Wind: 3.69 Cloud cover: 0.0 Lat: 60.35 Lng: 102.28 Indicated time:  03/30/2019, 03:24 UTC
Success.  Appending data.
Request city: bull savanna at 03/29/2019, 20:24:27
Response at 03/29/2019, 20:24:27
City: Bull Savanna Country: JM Temp: 66.27 Humidity: 88.0 Wind: 2.68 Cloud cover: 20.0 Lat: 17.89 Lng: -77.59 Indicated time:  03/30/2019, 03:24 UTC
Success.  Appending data.
Request city: bijie at 03/29/2019, 20:24:27
Response at 03/29/2019, 20:24:28
City: Bijie Country: CN Temp: 58.71 Humidity: 92.0 Wind: 3.36 Cloud cover: 92.0 Lat: 27.3 Lng: 105.3 Indicated time:  03/30/2019, 03:24 UTC
Success.  Appending data.
Request city: mwaya at 03/29/2019, 20:24:28
HTTP Request Failed
Data does not meet criteria and will not be used.
Request city: pasni at 03/29/2019, 20:24:28
Response at 03/29/2019, 20:24:28
City: Pasni Country: PK Temp: 76.17 Humidity: 76.0 Wind: 8.16 Cloud cover: 0.0 Lat: 25.26 Lng: 63.48 Indicated time:  03/30/2019, 03:24 UTC
Success.  Appending data.
Request city: galiwinku at 03/29/2019, 20:24:28
HTTP Request Failed
Data does not meet criteria and will not be used.
Beginning data collection batch 9 at: 03/29/2019, 20:24:32
Request city: haines junction at 03/29/2019, 20:24:32
Response at 03/29/2019, 20:24:34
City: Haines Junction Country: CA Temp: 36.21 Humidity: 80.0 Wind: 2.13 Cloud cover: 92.0 Lat: 60.75 Lng: -137.51 Indicated time:  03/30/2019, 03:24 UTC
Success.  Appending data.
Request city: dibaya at 03/29/2019, 20:24:34
HTTP Request Failed
Data does not meet criteria and will not be used.
Request city: verovice at 03/29/2019, 20:24:34
Response at 03/29/2019, 20:24:35
City: Verovice Country: CZ Temp: 33.57 Humidity: 92.0 Wind: 2.35 Cloud cover: 8.0 Lat: 49.54 Lng: 18.11 Indicated time:  03/30/2019, 03:24 UTC
Success.  Appending data.
Request city: mataura at 03/29/2019, 20:24:35
Response at 03/29/2019, 20:24:35
City: Mataura Country: NZ Temp: 66.99 Humidity: 76.0 Wind: 1.01 Cloud cover: 0.0 Lat: -46.19 Lng: 168.86 Indicated time:  03/30/2019, 03:10 UTC
Success.  Appending data.
Request city: galgani at 03/29/2019, 20:24:35
HTTP Request Failed
Data does not meet criteria and will not be used.
Request city: nguiu at 03/29/2019, 20:24:36
HTTP Request Failed
Data does not meet criteria and will not be used.
Request city: gayny at 03/29/2019, 20:24:36
Response at 03/29/2019, 20:24:37
City: Gayny Country: RU Temp: 28.47 Humidity: 91.0 Wind: 10.63 Cloud cover: 56.0 Lat: 60.3 Lng: 54.33 Indicated time:  03/30/2019, 03:24 UTC
Success.  Appending data.
Request city: thyolo at 03/29/2019, 20:24:37
Response at 03/29/2019, 20:24:37
City: Thyolo Country: MW Temp: 59.34 Humidity: 90.0 Wind: 2.35 Cloud cover: 20.0 Lat: -16.07 Lng: 35.15 Indicated time:  03/30/2019, 03:24 UTC
Success.  Appending data.
Request city: khuzdar at 03/29/2019, 20:24:37
Response at 03/29/2019, 20:24:37
City: Khuzdar Country: PK Temp: 55.74 Humidity: 50.0 Wind: 2.68 Cloud cover: 0.0 Lat: 27.8 Lng: 66.62 Indicated time:  03/30/2019, 03:24 UTC
Success.  Appending data.
Request city: djenne at 03/29/2019, 20:24:37
Response at 03/29/2019, 20:24:38
City: Djenne Country: ML Temp: 75.27 Humidity: 62.0 Wind: 3.02 Cloud cover: 0.0 Lat: 13.91 Lng: -4.55 Indicated time:  03/30/2019, 03:24 UTC
Success.  Appending data.
Request city: alferrarede at 03/29/2019, 20:24:38
Response at 03/29/2019, 20:24:38
City: Alferrarede Country: PT Temp: 43.95 Humidity: 53.0 Wind: 2.46 Cloud cover: 48.0 Lat: 39.48 Lng: -8.18 Indicated time:  03/30/2019, 03:24 UTC
Success.  Appending data.
Request city: sindand at 03/29/2019, 20:24:38
HTTP Request Failed
Data does not meet criteria and will not be used.
Request city: zanjan at 03/29/2019, 20:24:39
Response at 03/29/2019, 20:24:39
City: Zanjan Country: IR Temp: 41.0 Humidity: 87.0 Wind: 9.17 Cloud cover: 75.0 Lat: 36.67 Lng: 48.48 Indicated time:  03/30/2019, 03:00 UTC
Success.  Appending data.
Request city: ambilobe at 03/29/2019, 20:24:39
Response at 03/29/2019, 20:24:40
City: Ambilobe Country: MG Temp: 70.5 Humidity: 100.0 Wind: 4.36 Cloud cover: 92.0 Lat: -13.19 Lng: 49.05 Indicated time:  03/30/2019, 03:14 UTC
Success.  Appending data.
Request city: armidale at 03/29/2019, 20:24:40
Response at 03/29/2019, 20:24:40
City: Armidale Country: AU Temp: 66.0 Humidity: 60.0 Wind: 8.01 Cloud cover: 48.0 Lat: -30.51 Lng: 151.67 Indicated time:  03/30/2019, 03:16 UTC
Success.  Appending data.
Request city: mut at 03/29/2019, 20:24:40
Response at 03/29/2019, 20:24:40
City: Mut Country: TR Temp: 36.66 Humidity: 95.0 Wind: 2.68 Cloud cover: 92.0 Lat: 36.64 Lng: 33.44 Indicated time:  03/30/2019, 03:24 UTC
Success.  Appending data.
Request city: teshie at 03/29/2019, 20:24:40
Response at 03/29/2019, 20:24:41
City: Teshie Country: GH Temp: 84.2 Humidity: 83.0 Wind: 10.29 Cloud cover: 40.0 Lat: 5.58 Lng: -0.11 Indicated time:  03/30/2019, 02:00 UTC
Success.  Appending data.
Request city: louis trichardt at 03/29/2019, 20:24:41
Response at 03/29/2019, 20:24:41
City: Louis Trichardt Country: ZA Temp: 66.36 Humidity: 92.0 Wind: 4.59 Cloud cover: 20.0 Lat: -23.04 Lng: 29.91 Indicated time:  03/30/2019, 03:24 UTC
Success.  Appending data.
Request city: moroto at 03/29/2019, 20:24:41
Response at 03/29/2019, 20:24:41
City: Moroto Country: UG Temp: 59.79 Humidity: 82.0 Wind: 4.59 Cloud cover: 0.0 Lat: 2.53 Lng: 34.66 Indicated time:  03/30/2019, 03:24 UTC
Success.  Appending data.
Request city: gorom-gorom at 03/29/2019, 20:24:41
Response at 03/29/2019, 20:24:42
City: Gorom-Gorom Country: BF Temp: 73.65 Humidity: 66.0 Wind: 2.68 Cloud cover: 0.0 Lat: 14.45 Lng: -0.24 Indicated time:  03/30/2019, 03:24 UTC
Success.  Appending data.
Beginning data collection batch 10 at: 03/29/2019, 20:24:45
Request city: kifri at 03/29/2019, 20:24:46
Response at 03/29/2019, 20:24:46
City: Kifri Country: IQ Temp: 57.0 Humidity: 62.0 Wind: 11.3 Cloud cover: 100.0 Lat: 34.69 Lng: 44.96 Indicated time:  03/30/2019, 03:24 UTC
Success.  Appending data.
Request city: fort nelson at 03/29/2019, 20:24:46
Response at 03/29/2019, 20:24:47
City: Fort Nelson Country: CA Temp: 55.4 Humidity: 26.0 Wind: 12.75 Cloud cover: 20.0 Lat: 58.81 Lng: -122.69 Indicated time:  03/30/2019, 02:00 UTC
Success.  Appending data.
Request city: niamey at 03/29/2019, 20:24:47
Response at 03/29/2019, 20:24:50
City: Niamey Country: NE Temp: 84.2 Humidity: 62.0 Wind: 3.36 Cloud cover: 0.0 Lat: 13.52 Lng: 2.11 Indicated time:  03/30/2019, 02:00 UTC
Success.  Appending data.
Request city: cah ab at 03/29/2019, 20:24:50
HTTP Request Failed
Data does not meet criteria and will not be used.
Request city: hami at 03/29/2019, 20:24:50
Response at 03/29/2019, 20:24:51
City: Hami Country: CN Temp: 54.75 Humidity: 47.0 Wind: 9.06 Cloud cover: 0.0 Lat: 42.84 Lng: 93.51 Indicated time:  03/30/2019, 03:24 UTC
Success.  Appending data.
Request city: zevenaar at 03/29/2019, 20:24:51
Response at 03/29/2019, 20:24:51
City: Zevenaar Country: NL Temp: 42.35 Humidity: 86.0 Wind: 3.36 Cloud cover: 0.0 Lat: 51.94 Lng: 6.08 Indicated time:  03/30/2019, 03:24 UTC
Success.  Appending data.
Request city: naustdal at 03/29/2019, 20:24:51
Response at 03/29/2019, 20:24:53
City: Naustdal Country: NO Temp: 39.79 Humidity: 86.0 Wind: 12.75 Cloud cover: 92.0 Lat: 61.51 Lng: 5.72 Indicated time:  03/30/2019, 03:15 UTC
Success.  Appending data.
Request city: bakchar at 03/29/2019, 20:24:53
Response at 03/29/2019, 20:24:53
City: Bakchar Country: RU Temp: 35.49 Humidity: 97.0 Wind: 4.7 Cloud cover: 92.0 Lat: 57.02 Lng: 82.07 Indicated time:  03/30/2019, 03:24 UTC
Success.  Appending data.
Request city: paoua at 03/29/2019, 20:24:53
Response at 03/29/2019, 20:24:53
City: Paoua Country: CF Temp: 66.9 Humidity: 70.0 Wind: 2.68 Cloud cover: 8.0 Lat: 7.24 Lng: 16.43 Indicated time:  03/30/2019, 03:24 UTC
Success.  Appending data.
Request city: diofior at 03/29/2019, 20:24:53
Response at 03/29/2019, 20:24:54
City: Diofior Country: SN Temp: 69.76 Humidity: 49.0 Wind: 11.41 Cloud cover: 0.0 Lat: 14.19 Lng: -16.66 Indicated time:  03/30/2019, 03:00 UTC
Success.  Appending data.
Request city: ende at 03/29/2019, 20:24:54
Response at 03/29/2019, 20:24:55
City: Ende Country: ID Temp: 82.2 Humidity: 100.0 Wind: 2.35 Cloud cover: 8.0 Lat: -8.84 Lng: 121.65 Indicated time:  03/30/2019, 03:24 UTC
Success.  Appending data.
Request city: hemnes at 03/29/2019, 20:24:55
HTTP Request Failed
Data does not meet criteria and will not be used.
Request city: chachapoyas at 03/29/2019, 20:24:55
Response at 03/29/2019, 20:24:56
City: Chachapoyas Country: PE Temp: 60.96 Humidity: 88.0 Wind: 1.9 Cloud cover: 92.0 Lat: -6.23 Lng: -77.87 Indicated time:  03/30/2019, 03:24 UTC
Success.  Appending data.
Request city: gibara at 03/29/2019, 20:24:56
Response at 03/29/2019, 20:24:57
City: Gibara Country: CU Temp: 69.8 Humidity: 77.0 Wind: 8.05 Cloud cover: 0.0 Lat: 21.11 Lng: -76.13 Indicated time:  03/30/2019, 02:50 UTC
Success.  Appending data.
Request city: juchipila at 03/29/2019, 20:24:57
Response at 03/29/2019, 20:24:58
City: Juchipila Country: MX Temp: 59.97 Humidity: 31.0 Wind: 3.47 Cloud cover: 0.0 Lat: 21.41 Lng: -103.12 Indicated time:  03/30/2019, 03:24 UTC
Success.  Appending data.
Request city: manuk mangkaw at 03/29/2019, 20:24:58
Response at 03/29/2019, 20:24:58
City: Manuk Mangkaw Country: PH Temp: 82.83 Humidity: 100.0 Wind: 5.37 Cloud cover: 8.0 Lat: 4.8 Lng: 119.85 Indicated time:  03/30/2019, 03:24 UTC
Success.  Appending data.
Request city: pasinler at 03/29/2019, 20:24:58
Response at 03/29/2019, 20:24:59
City: Pasinler Country: TR Temp: 26.85 Humidity: 92.0 Wind: 17.22 Cloud cover: 90.0 Lat: 39.98 Lng: 41.67 Indicated time:  03/30/2019, 02:50 UTC
Success.  Appending data.
Request city: sumen at 03/29/2019, 20:24:59
HTTP Request Failed
Data does not meet criteria and will not be used.
Request city: oktyabrskoye at 03/29/2019, 20:24:59
Response at 03/29/2019, 20:25:01
City: Oktyabrskoye Country: RU Temp: 37.8 Humidity: 69.0 Wind: 8.95 Cloud cover: 20.0 Lat: 56.73 Lng: 85.44 Indicated time:  03/30/2019, 03:16 UTC
Success.  Appending data.
Request city: lufkin at 03/29/2019, 20:25:01
Response at 03/29/2019, 20:25:01
City: Lufkin Country: US Temp: 64.72 Humidity: 88.0 Wind: 12.75 Cloud cover: 1.0 Lat: 31.34 Lng: -94.73 Indicated time:  03/30/2019, 03:23 UTC
Success.  Appending data.
Beginning data collection batch 11 at: 03/29/2019, 20:25:04
Request city: lethem at 03/29/2019, 20:25:06
Response at 03/29/2019, 20:25:07
City: Lethem Country: GY Temp: 81.66 Humidity: 70.0 Wind: 2.68 Cloud cover: 20.0 Lat: 3.38 Lng: -59.8 Indicated time:  03/30/2019, 03:25 UTC
Success.  Appending data.
Request city: nizhniy ingash at 03/29/2019, 20:25:07
Response at 03/29/2019, 20:25:08
City: Nizhniy Ingash Country: RU Temp: 35.85 Humidity: 53.0 Wind: 7.72 Cloud cover: 8.0 Lat: 56.2 Lng: 96.53 Indicated time:  03/30/2019, 03:25 UTC
Success.  Appending data.
Request city: deneysville at 03/29/2019, 20:25:08
Response at 03/29/2019, 20:25:09
City: Deneysville Country: ZA Temp: 56.73 Humidity: 100.0 Wind: 9.62 Cloud cover: 0.0 Lat: -26.89 Lng: 28.1 Indicated time:  03/30/2019, 03:25 UTC
Success.  Appending data.
Request city: bichura at 03/29/2019, 20:25:09
Response at 03/29/2019, 20:25:09
City: Bichura Country: RU Temp: 31.17 Humidity: 52.0 Wind: 5.26 Cloud cover: 64.0 Lat: 50.59 Lng: 107.6 Indicated time:  03/30/2019, 03:25 UTC
Success.  Appending data.
Request city: tunceli at 03/29/2019, 20:25:09
Response at 03/29/2019, 20:25:09
City: Tunceli Country: TR Temp: 36.46 Humidity: 93.0 Wind: 2.91 Cloud cover: 90.0 Lat: 39.11 Lng: 39.55 Indicated time:  03/30/2019, 02:50 UTC
Success.  Appending data.
Request city: minna at 03/29/2019, 20:25:09
Response at 03/29/2019, 20:25:10
City: Minna Country: NG Temp: 74.64 Humidity: 68.0 Wind: 3.02 Cloud cover: 0.0 Lat: 9.62 Lng: 6.55 Indicated time:  03/30/2019, 03:25 UTC
Success.  Appending data.
Request city: abja-paluoja at 03/29/2019, 20:25:10
Response at 03/29/2019, 20:25:10
City: Abja-Paluoja Country: EE Temp: 37.99 Humidity: 89.0 Wind: 12.86 Cloud cover: 0.0 Lat: 58.13 Lng: 25.36 Indicated time:  03/30/2019, 03:18 UTC
Success.  Appending data.
Request city: saurimo at 03/29/2019, 20:25:10
Response at 03/29/2019, 20:25:11
City: Saurimo Country: AO Temp: 64.38 Humidity: 87.0 Wind: 2.35 Cloud cover: 0.0 Lat: -9.66 Lng: 20.4 Indicated time:  03/30/2019, 03:25 UTC
Success.  Appending data.
Request city: bogovina at 03/29/2019, 20:25:11
Response at 03/29/2019, 20:25:11
City: Bogovina Country: RS Temp: 39.2 Humidity: 55.0 Wind: 4.7 Cloud cover: 0.0 Lat: 43.9 Lng: 21.94 Indicated time:  03/30/2019, 03:00 UTC
Success.  Appending data.
Request city: hermon at 03/29/2019, 20:25:11
Response at 03/29/2019, 20:25:12
City: Hermon Country: GB Temp: 38.57 Humidity: 100.0 Wind: 3.36 Cloud cover: 90.0 Lat: 51.96 Lng: -4.61 Indicated time:  03/30/2019, 03:24 UTC
Success.  Appending data.
Request city: ferme-neuve at 03/29/2019, 20:25:12
Response at 03/29/2019, 20:25:12
City: Ferme-Neuve Country: CA Temp: 16.68 Humidity: 74.0 Wind: 2.35 Cloud cover: 0.0 Lat: 46.7 Lng: -75.45 Indicated time:  03/30/2019, 03:23 UTC
Success.  Appending data.
Request city: matsanga at 03/29/2019, 20:25:12
HTTP Request Failed
Data does not meet criteria and will not be used.
Request city: mana at 03/29/2019, 20:25:12
Response at 03/29/2019, 20:25:13
City: Mana Country: RS Temp: 32.94 Humidity: 82.0 Wind: 1.12 Cloud cover: 0.0 Lat: 43.52 Lng: 20.24 Indicated time:  03/30/2019, 03:00 UTC
Success.  Appending data.
Request city: araouane at 03/29/2019, 20:25:13
Response at 03/29/2019, 20:25:13
City: Araouane Country: ML Temp: 79.41 Humidity: 28.0 Wind: 7.83 Cloud cover: 80.0 Lat: 18.9 Lng: -3.53 Indicated time:  03/30/2019, 03:21 UTC
Success.  Appending data.
Request city: riobamba at 03/29/2019, 20:25:13
Response at 03/29/2019, 20:25:14
City: Riobamba Country: EC Temp: 47.82 Humidity: 94.0 Wind: 2.57 Cloud cover: 76.0 Lat: -1.67 Lng: -78.65 Indicated time:  03/30/2019, 03:22 UTC
Success.  Appending data.
Request city: namibe at 03/29/2019, 20:25:14
Response at 03/29/2019, 20:25:14
City: Namibe Country: AO Temp: 78.78 Humidity: 96.0 Wind: 11.74 Cloud cover: 48.0 Lat: -15.19 Lng: 12.15 Indicated time:  03/30/2019, 03:25 UTC
Success.  Appending data.
Request city: pontes e lacerda at 03/29/2019, 20:25:14
Response at 03/29/2019, 20:25:15
City: Pontes e Lacerda Country: BR Temp: 71.94 Humidity: 94.0 Wind: 2.35 Cloud cover: 24.0 Lat: -15.23 Lng: -59.33 Indicated time:  03/30/2019, 03:25 UTC
Success.  Appending data.
Request city: betafo at 03/29/2019, 20:25:15
Response at 03/29/2019, 20:25:16
City: Betafo Country: MG Temp: 57.18 Humidity: 92.0 Wind: 4.14 Cloud cover: 12.0 Lat: -19.84 Lng: 46.86 Indicated time:  03/30/2019, 03:25 UTC
Success.  Appending data.
Request city: nigrita at 03/29/2019, 20:25:16
Response at 03/29/2019, 20:25:17
City: Nigrita Country: GR Temp: 42.87 Humidity: 86.0 Wind: 3.36 Cloud cover: 20.0 Lat: 40.91 Lng: 23.5 Indicated time:  03/30/2019, 03:25 UTC
Success.  Appending data.
Request city: castanhal at 03/29/2019, 20:25:17
Response at 03/29/2019, 20:25:17
City: Castanhal Country: BR Temp: 77.0 Humidity: 94.0 Wind: 4.7 Cloud cover: 75.0 Lat: -1.29 Lng: -47.92 Indicated time:  03/30/2019, 03:00 UTC
Success.  Appending data.
Beginning data collection batch 12 at: 03/29/2019, 20:25:20
Request city: kenai at 03/29/2019, 20:25:21
Response at 03/29/2019, 20:25:22
City: Kenai Country: US Temp: 44.51 Humidity: 88.0 Wind: 6.93 Cloud cover: 1.0 Lat: 60.55 Lng: -151.26 Indicated time:  03/30/2019, 03:21 UTC
Success.  Appending data.
Request city: acari at 03/29/2019, 20:25:22
Response at 03/29/2019, 20:25:22
City: Acari Country: BR Temp: 71.94 Humidity: 94.0 Wind: 4.14 Cloud cover: 76.0 Lat: -6.44 Lng: -36.64 Indicated time:  03/30/2019, 03:25 UTC
Success.  Appending data.
Request city: lebanon at 03/29/2019, 20:25:22
Response at 03/29/2019, 20:25:22
City: Lebanon Country: US Temp: 36.73 Humidity: 86.0 Wind: 2.46 Cloud cover: 90.0 Lat: 43.64 Lng: -72.25 Indicated time:  03/30/2019, 03:13 UTC
Success.  Appending data.
Request city: champoton at 03/29/2019, 20:25:22
Response at 03/29/2019, 20:25:23
City: Champoton Country: MX Temp: 77.0 Humidity: 65.0 Wind: 11.41 Cloud cover: 5.0 Lat: 19.35 Lng: -90.72 Indicated time:  03/30/2019, 02:44 UTC
Success.  Appending data.
Request city: culaman at 03/29/2019, 20:25:23
Response at 03/29/2019, 20:25:23
City: Culaman Country: PH Temp: 91.4 Humidity: 46.0 Wind: 11.41 Cloud cover: 20.0 Lat: 5.96 Lng: 125.66 Indicated time:  03/30/2019, 03:00 UTC
Success.  Appending data.
Request city: binga at 03/29/2019, 20:25:23
Response at 03/29/2019, 20:25:24
City: Binga Country: ZW Temp: 77.16 Humidity: 61.0 Wind: 9.95 Cloud cover: 0.0 Lat: -17.62 Lng: 27.34 Indicated time:  03/30/2019, 03:25 UTC
Success.  Appending data.
Request city: tbilisskaya at 03/29/2019, 20:25:24
Response at 03/29/2019, 20:25:25
City: Tbilisskaya Country: RU Temp: 35.01 Humidity: 56.0 Wind: 8.61 Cloud cover: 0.0 Lat: 45.36 Lng: 40.19 Indicated time:  03/30/2019, 03:15 UTC
Success.  Appending data.
Request city: saint george at 03/29/2019, 20:25:25
Response at 03/29/2019, 20:25:26
City: Saint George Country: GR Temp: 40.3 Humidity: 93.0 Wind: 3.58 Cloud cover: 20.0 Lat: 39.45 Lng: 22.34 Indicated time:  03/30/2019, 03:23 UTC
Success.  Appending data.
Request city: aklavik at 03/29/2019, 20:25:26
Response at 03/29/2019, 20:25:26
City: Aklavik Country: CA Temp: 33.8 Humidity: 64.0 Wind: 6.93 Cloud cover: 75.0 Lat: 68.22 Lng: -135.01 Indicated time:  03/30/2019, 02:00 UTC
Success.  Appending data.
Request city: karachi at 03/29/2019, 20:25:26
Response at 03/29/2019, 20:25:26
City: Karachi Country: PK Temp: 77.0 Humidity: 50.0 Wind: 7.16 Cloud cover: 0.0 Lat: 24.87 Lng: 67.03 Indicated time:  03/30/2019, 02:55 UTC
Success.  Appending data.
Request city: nizhniy bestyakh at 03/29/2019, 20:25:26
Response at 03/29/2019, 20:25:27
City: Nizhniy Bestyakh Country: RU Temp: 12.2 Humidity: 56.0 Wind: 4.47 Cloud cover: 0.0 Lat: 61.96 Lng: 129.91 Indicated time:  03/30/2019, 02:30 UTC
Success.  Appending data.
Request city: heishan at 03/29/2019, 20:25:27
Response at 03/29/2019, 20:25:28
City: Heishan Country: CN Temp: 37.56 Humidity: 89.0 Wind: 16.78 Cloud cover: 92.0 Lat: 41.69 Lng: 122.12 Indicated time:  03/30/2019, 03:25 UTC
Success.  Appending data.
Request city: kidal at 03/29/2019, 20:25:28
Response at 03/29/2019, 20:25:28
City: Kidal Country: ML Temp: 78.51 Humidity: 26.0 Wind: 5.7 Cloud cover: 56.0 Lat: 18.44 Lng: 1.41 Indicated time:  03/30/2019, 03:25 UTC
Success.  Appending data.
Request city: rio branco at 03/29/2019, 20:25:28
Response at 03/29/2019, 20:25:29
City: Rio Branco Country: BR Temp: 75.2 Humidity: 100.0 Wind: 2.24 Cloud cover: 0.0 Lat: -9.98 Lng: -67.82 Indicated time:  03/30/2019, 03:00 UTC
Success.  Appending data.
Request city: saint-leu at 03/29/2019, 20:25:29
Response at 03/29/2019, 20:25:29
City: Saint-Leu Country: RE Temp: 74.97 Humidity: 65.0 Wind: 5.82 Cloud cover: 0.0 Lat: -21.15 Lng: 55.28 Indicated time:  03/30/2019, 03:20 UTC
Success.  Appending data.
Request city: anantapur at 03/29/2019, 20:25:29
Response at 03/29/2019, 20:25:29
City: Anantapur Country: IN Temp: 78.51 Humidity: 63.0 Wind: 4.59 Cloud cover: 0.0 Lat: 14.68 Lng: 77.61 Indicated time:  03/30/2019, 03:24 UTC
Success.  Appending data.
Request city: pucara at 03/29/2019, 20:25:29
Response at 03/29/2019, 20:25:30
City: Pucara Country: BO Temp: 66.2 Humidity: 72.0 Wind: 1.57 Cloud cover: 20.0 Lat: -21.7 Lng: -64.2 Indicated time:  03/30/2019, 02:00 UTC
Success.  Appending data.
Request city: san carlos at 03/29/2019, 20:25:30
Response at 03/29/2019, 20:25:30
City: San Carlos Country: VE Temp: 79.5 Humidity: 74.0 Wind: 7.94 Cloud cover: 36.0 Lat: 9.66 Lng: -68.59 Indicated time:  03/30/2019, 03:25 UTC
Success.  Appending data.
Request city: geraldton at 03/29/2019, 20:25:30
Response at 03/29/2019, 20:25:31
City: Geraldton Country: CA Temp: 26.6 Humidity: 58.0 Wind: 10.29 Cloud cover: 40.0 Lat: 49.72 Lng: -86.95 Indicated time:  03/30/2019, 02:00 UTC
Success.  Appending data.
Request city: san borja at 03/29/2019, 20:25:31
Response at 03/29/2019, 20:25:31
City: San Borja Country: BO Temp: 72.93 Humidity: 84.0 Wind: 1.79 Cloud cover: 36.0 Lat: -14.86 Lng: -66.75 Indicated time:  03/30/2019, 03:25 UTC
Success.  Appending data.
Beginning data collection batch 13 at: 03/29/2019, 20:25:34
Request city: bagdarin at 03/29/2019, 20:25:35
Response at 03/29/2019, 20:25:36
City: Bagdarin Country: RU Temp: 22.71 Humidity: 30.0 Wind: 4.36 Cloud cover: 0.0 Lat: 54.44 Lng: 113.59 Indicated time:  03/30/2019, 03:25 UTC
Success.  Appending data.
Request city: qesarya at 03/29/2019, 20:25:36
Response at 03/29/2019, 20:25:36
City: Qesarya Country: IL Temp: 57.49 Humidity: 82.0 Wind: 5.82 Cloud cover: 40.0 Lat: 32.52 Lng: 34.9 Indicated time:  03/30/2019, 03:23 UTC
Success.  Appending data.
Request city: jutai at 03/29/2019, 20:25:36
Response at 03/29/2019, 20:25:36
City: Jutai Country: BR Temp: 76.08 Humidity: 98.0 Wind: 2.57 Cloud cover: 88.0 Lat: -1.71 Lng: -47.89 Indicated time:  03/30/2019, 03:25 UTC
Success.  Appending data.
Request city: bulawayo at 03/29/2019, 20:25:36
Response at 03/29/2019, 20:25:37
City: Bulawayo Country: ZW Temp: 59.88 Humidity: 91.0 Wind: 4.92 Cloud cover: 0.0 Lat: -20.16 Lng: 28.59 Indicated time:  03/30/2019, 03:25 UTC
Success.  Appending data.
Request city: satana at 03/29/2019, 20:25:37
Response at 03/29/2019, 20:25:37
City: Satana Country: IN Temp: 82.2 Humidity: 37.0 Wind: 4.36 Cloud cover: 0.0 Lat: 20.6 Lng: 74.2 Indicated time:  03/30/2019, 03:25 UTC
Success.  Appending data.
Request city: sabya at 03/29/2019, 20:25:37
Response at 03/29/2019, 20:25:37
City: Sabya Country: YE Temp: 66.36 Humidity: 85.0 Wind: 2.8 Cloud cover: 0.0 Lat: 16.19 Lng: 43.1 Indicated time:  03/30/2019, 03:25 UTC
Success.  Appending data.
Request city: sao francisco at 03/29/2019, 20:25:37
Response at 03/29/2019, 20:25:38
City: Sao Francisco Country: BR Temp: 70.7 Humidity: 94.0 Wind: 2.13 Cloud cover: 0.0 Lat: -25.65 Lng: -53.85 Indicated time:  03/30/2019, 03:00 UTC
Success.  Appending data.
Request city: kita at 03/29/2019, 20:25:38
Response at 03/29/2019, 20:25:39
City: Kita Country: JP Temp: 50.34 Humidity: 71.0 Wind: 9.17 Cloud cover: 75.0 Lat: 35.76 Lng: 139.74 Indicated time:  03/30/2019, 03:15 UTC
Success.  Appending data.
Request city: pelym at 03/29/2019, 20:25:39
Response at 03/29/2019, 20:25:40
City: Pelym Country: RU Temp: 27.48 Humidity: 87.0 Wind: 5.14 Cloud cover: 0.0 Lat: 61.01 Lng: 62.0 Indicated time:  03/30/2019, 03:25 UTC
Success.  Appending data.
Request city: jalingo at 03/29/2019, 20:25:40
Response at 03/29/2019, 20:25:41
City: Jalingo Country: NG Temp: 72.3 Humidity: 61.0 Wind: 5.14 Cloud cover: 0.0 Lat: 10.21 Lng: 12.82 Indicated time:  03/30/2019, 03:25 UTC
Success.  Appending data.
Request city: paddhari at 03/29/2019, 20:25:41
Response at 03/29/2019, 20:25:42
City: Paddhari Country: IN Temp: 84.99 Humidity: 51.0 Wind: 9.06 Cloud cover: 8.0 Lat: 22.44 Lng: 70.6 Indicated time:  03/30/2019, 03:24 UTC
Success.  Appending data.
Request city: avarua at 03/29/2019, 20:25:42
Response at 03/29/2019, 20:25:43
City: Avarua Country: CK Temp: 75.2 Humidity: 94.0 Wind: 6.93 Cloud cover: 68.0 Lat: -21.21 Lng: -159.78 Indicated time:  03/30/2019, 02:30 UTC
Success.  Appending data.
Request city: muriwai beach at 03/29/2019, 20:25:43
Response at 03/29/2019, 20:25:46
City: Muriwai Beach Country: NZ Temp: 73.02 Humidity: 57.0 Wind: 18.34 Cloud cover: 92.0 Lat: -36.82 Lng: 174.45 Indicated time:  03/30/2019, 03:25 UTC
Success.  Appending data.
Request city: malegaon at 03/29/2019, 20:25:46
Response at 03/29/2019, 20:25:48
City: Malegaon Country: IN Temp: 82.2 Humidity: 37.0 Wind: 4.36 Cloud cover: 0.0 Lat: 20.56 Lng: 74.52 Indicated time:  03/30/2019, 03:25 UTC
Success.  Appending data.
Request city: port keats at 03/29/2019, 20:25:48
Response at 03/29/2019, 20:25:49
City: Port Keats Country: AU Temp: 91.2 Humidity: 71.0 Wind: 11.41 Cloud cover: 0.0 Lat: -14.25 Lng: 129.55 Indicated time:  03/30/2019, 03:25 UTC
Success.  Appending data.
Request city: glenwood springs at 03/29/2019, 20:25:49
Response at 03/29/2019, 20:25:49
City: Glenwood Springs Country: US Temp: 28.63 Humidity: 67.0 Wind: 4.7 Cloud cover: 40.0 Lat: 39.55 Lng: -107.33 Indicated time:  03/30/2019, 03:20 UTC
Success.  Appending data.
Request city: sarh at 03/29/2019, 20:25:49
Response at 03/29/2019, 20:25:50
City: Sarh Country: TD Temp: 82.4 Humidity: 51.0 Wind: 2.8 Cloud cover: 0.0 Lat: 9.14 Lng: 18.39 Indicated time:  03/30/2019, 02:00 UTC
Success.  Appending data.
Request city: zschopau at 03/29/2019, 20:25:50
Response at 03/29/2019, 20:25:50
City: Zschopau Country: DE Temp: 35.89 Humidity: 78.0 Wind: 2.24 Cloud cover: 0.0 Lat: 50.75 Lng: 13.07 Indicated time:  03/30/2019, 03:25 UTC
Success.  Appending data.
Request city: merke at 03/29/2019, 20:25:50
Response at 03/29/2019, 20:25:51
City: Merke Country: KZ Temp: 30.9 Humidity: 95.0 Wind: 1.68 Cloud cover: 88.0 Lat: 42.87 Lng: 73.19 Indicated time:  03/30/2019, 03:25 UTC
Success.  Appending data.
Request city: loreto at 03/29/2019, 20:25:51
Response at 03/29/2019, 20:25:52
City: Loreto Country: PY Temp: 77.52 Humidity: 75.0 Wind: 4.92 Cloud cover: 0.0 Lat: -23.27 Lng: -57.32 Indicated time:  03/30/2019, 03:25 UTC
Success.  Appending data.
Beginning data collection batch 14 at: 03/29/2019, 20:25:55
Request city: ankazoabo at 03/29/2019, 20:25:56
Response at 03/29/2019, 20:25:58
City: Ankazoabo Country: MG Temp: 69.6 Humidity: 85.0 Wind: 2.13 Cloud cover: 20.0 Lat: -22.29 Lng: 44.51 Indicated time:  03/30/2019, 03:25 UTC
Success.  Appending data.
Request city: chegdomyn at 03/29/2019, 20:25:58
Response at 03/29/2019, 20:25:59
City: Chegdomyn Country: RU Temp: 25.77 Humidity: 48.0 Wind: 3.58 Cloud cover: 24.0 Lat: 51.13 Lng: 133.04 Indicated time:  03/30/2019, 03:25 UTC
Success.  Appending data.
Request city: menongue at 03/29/2019, 20:25:59
Response at 03/29/2019, 20:26:00
City: Menongue Country: AO Temp: 66.27 Humidity: 70.0 Wind: 3.02 Cloud cover: 20.0 Lat: -14.66 Lng: 17.68 Indicated time:  03/30/2019, 03:26 UTC
Success.  Appending data.
Request city: hrubieszow at 03/29/2019, 20:26:00
Response at 03/29/2019, 20:26:01
City: Hrubieszow Country: PL Temp: 39.63 Humidity: 93.0 Wind: 9.4 Cloud cover: 0.0 Lat: 50.8 Lng: 23.89 Indicated time:  03/30/2019, 03:26 UTC
Success.  Appending data.
Request city: price at 03/29/2019, 20:26:01
Response at 03/29/2019, 20:26:01
City: Price Country: US Temp: 32.95 Humidity: 55.0 Wind: 16.11 Cloud cover: 1.0 Lat: 39.6 Lng: -110.81 Indicated time:  03/30/2019, 03:25 UTC
Success.  Appending data.
Request city: toulepleu at 03/29/2019, 20:26:01
HTTP Request Failed
Data does not meet criteria and will not be used.
Request city: danville at 03/29/2019, 20:26:03
Response at 03/29/2019, 20:26:04
City: Danville Country: US Temp: 54.91 Humidity: 47.0 Wind: 3.36 Cloud cover: 20.0 Lat: 36.59 Lng: -79.4 Indicated time:  03/30/2019, 03:26 UTC
Success.  Appending data.
Request city: rostaq at 03/29/2019, 20:26:04
HTTP Request Failed
Data does not meet criteria and will not be used.
Request city: mardin at 03/29/2019, 20:26:05
Response at 03/29/2019, 20:26:06
City: Mardin Country: TR Temp: 50.0 Humidity: 100.0 Wind: 11.41 Cloud cover: 90.0 Lat: 37.32 Lng: 40.72 Indicated time:  03/30/2019, 02:50 UTC
Success.  Appending data.
Request city: yialos at 03/29/2019, 20:26:06
HTTP Request Failed
Data does not meet criteria and will not be used.
Request city: dumas at 03/29/2019, 20:26:07
Response at 03/29/2019, 20:26:08
City: Dumas Country: IN Temp: 77.0 Humidity: 83.0 Wind: 2.35 Cloud cover: 0.0 Lat: 21.09 Lng: 72.71 Indicated time:  03/30/2019, 02:30 UTC
Success.  Appending data.
Request city: ouango at 03/29/2019, 20:26:08
Response at 03/29/2019, 20:26:08
City: Ouango Country: CD Temp: 72.3 Humidity: 93.0 Wind: 3.69 Cloud cover: 12.0 Lat: 4.31 Lng: 22.55 Indicated time:  03/30/2019, 03:26 UTC
Success.  Appending data.
Request city: wellington at 03/29/2019, 20:26:08
Response at 03/29/2019, 20:26:09
City: Wellington Country: NZ Temp: 70.74 Humidity: 77.0 Wind: 10.29 Cloud cover: 0.0 Lat: -41.29 Lng: 174.78 Indicated time:  03/30/2019, 03:22 UTC
Success.  Appending data.
Request city: broken hill at 03/29/2019, 20:26:09
Response at 03/29/2019, 20:26:10
City: Broken Hill Country: AU Temp: 60.8 Humidity: 46.0 Wind: 19.46 Cloud cover: 40.0 Lat: -31.97 Lng: 141.45 Indicated time:  03/30/2019, 02:04 UTC
Success.  Appending data.
Request city: bowling green at 03/29/2019, 20:26:10
Response at 03/29/2019, 20:26:10
City: Bowling Green Country: US Temp: 59.88 Humidity: 55.0 Wind: 8.05 Cloud cover: 40.0 Lat: 36.99 Lng: -86.44 Indicated time:  03/30/2019, 03:21 UTC
Success.  Appending data.
Request city: sola at 03/29/2019, 20:26:10
Response at 03/29/2019, 20:26:10
City: Sola Country: NO Temp: 43.48 Humidity: 93.0 Wind: 5.82 Cloud cover: 90.0 Lat: 58.89 Lng: 5.65 Indicated time:  03/30/2019, 03:25 UTC
Success.  Appending data.
Request city: kuandian at 03/29/2019, 20:26:10
Response at 03/29/2019, 20:26:11
City: Kuandian Country: CN Temp: 35.4 Humidity: 77.0 Wind: 5.14 Cloud cover: 92.0 Lat: 40.73 Lng: 124.78 Indicated time:  03/30/2019, 03:26 UTC
Success.  Appending data.
Request city: pereira barreto at 03/29/2019, 20:26:11
Response at 03/29/2019, 20:26:11
City: Pereira Barreto Country: BR Temp: 74.73 Humidity: 75.0 Wind: 5.48 Cloud cover: 0.0 Lat: -20.64 Lng: -51.11 Indicated time:  03/30/2019, 03:26 UTC
Success.  Appending data.
Request city: cercal at 03/29/2019, 20:26:11
Response at 03/29/2019, 20:26:12
City: Cercal Country: PT Temp: 57.0 Humidity: 77.0 Wind: 1.01 Cloud cover: 24.0 Lat: 37.8 Lng: -8.67 Indicated time:  03/30/2019, 03:17 UTC
Success.  Appending data.
Beginning data collection batch 15 at: 03/29/2019, 20:26:15
Request city: birjand at 03/29/2019, 20:26:16
Response at 03/29/2019, 20:26:17
City: Birjand Country: IR Temp: 44.6 Humidity: 52.0 Wind: 9.17 Cloud cover: 0.0 Lat: 32.86 Lng: 59.22 Indicated time:  03/30/2019, 03:00 UTC
Success.  Appending data.
Request city: liberia at 03/29/2019, 20:26:17
Response at 03/29/2019, 20:26:19
City: Liberia Country: CR Temp: 82.4 Humidity: 58.0 Wind: 9.17 Cloud cover: 0.0 Lat: 10.63 Lng: -85.44 Indicated time:  03/30/2019, 03:00 UTC
Success.  Appending data.
Request city: huntsville at 03/29/2019, 20:26:19
Response at 03/29/2019, 20:26:19
City: Huntsville Country: US Temp: 60.08 Humidity: 59.0 Wind: 5.82 Cloud cover: 1.0 Lat: 34.73 Lng: -86.59 Indicated time:  03/30/2019, 03:23 UTC
Success.  Appending data.
Request city: si racha at 03/29/2019, 20:26:19
Response at 03/29/2019, 20:26:21
City: Si Racha Country: TH Temp: 90.43 Humidity: 62.0 Wind: 11.41 Cloud cover: 20.0 Lat: 13.17 Lng: 100.93 Indicated time:  03/30/2019, 03:24 UTC
Success.  Appending data.
Request city: luderitz at 03/29/2019, 20:26:21
Response at 03/29/2019, 20:26:21
City: Luderitz Country: NA Temp: 62.13 Humidity: 88.0 Wind: 12.19 Cloud cover: 68.0 Lat: -26.65 Lng: 15.16 Indicated time:  03/30/2019, 03:26 UTC
Success.  Appending data.
Request city: kibala at 03/29/2019, 20:26:21
Response at 03/29/2019, 20:26:21
City: Kibala Country: TD Temp: 82.4 Humidity: 51.0 Wind: 2.8 Cloud cover: 0.0 Lat: 9.11 Lng: 18.35 Indicated time:  03/30/2019, 02:00 UTC
Success.  Appending data.
Request city: oksfjord at 03/29/2019, 20:26:21
Response at 03/29/2019, 20:26:22
City: Oksfjord Country: NO Temp: 32.36 Humidity: 98.0 Wind: 16.11 Cloud cover: 88.0 Lat: 70.24 Lng: 22.35 Indicated time:  03/30/2019, 03:15 UTC
Success.  Appending data.
Request city: manaure at 03/29/2019, 20:26:22
Response at 03/29/2019, 20:26:23
City: Manaure Country: CO Temp: 78.96 Humidity: 94.0 Wind: 19.8 Cloud cover: 12.0 Lat: 11.78 Lng: -72.45 Indicated time:  03/30/2019, 03:26 UTC
Success.  Appending data.
Request city: otjiwarongo at 03/29/2019, 20:26:23
Response at 03/29/2019, 20:26:27
City: Otjiwarongo Country: NA Temp: 61.68 Humidity: 86.0 Wind: 4.36 Cloud cover: 68.0 Lat: -20.46 Lng: 16.65 Indicated time:  03/30/2019, 03:26 UTC
Success.  Appending data.
Request city: kaura namoda at 03/29/2019, 20:26:27
Response at 03/29/2019, 20:26:31
City: Kaura Namoda Country: NG Temp: 70.68 Humidity: 44.0 Wind: 5.48 Cloud cover: 0.0 Lat: 12.59 Lng: 6.58 Indicated time:  03/30/2019, 03:26 UTC
Success.  Appending data.
Request city: manicore at 03/29/2019, 20:26:31
Response at 03/29/2019, 20:26:31
City: Manicore Country: BR Temp: 74.37 Humidity: 96.0 Wind: 2.13 Cloud cover: 56.0 Lat: -5.81 Lng: -61.3 Indicated time:  03/30/2019, 03:26 UTC
Success.  Appending data.
Request city: umm bab at 03/29/2019, 20:26:31
Response at 03/29/2019, 20:26:31
City: Umm Bab Country: QA Temp: 66.2 Humidity: 72.0 Wind: 12.75 Cloud cover: 75.0 Lat: 25.21 Lng: 50.81 Indicated time:  03/30/2019, 02:56 UTC
Success.  Appending data.
Request city: zuwarah at 03/29/2019, 20:26:31
Response at 03/29/2019, 20:26:32
City: Zuwarah Country: LY Temp: 52.23 Humidity: 100.0 Wind: 6.15 Cloud cover: 0.0 Lat: 32.93 Lng: 12.08 Indicated time:  03/30/2019, 03:26 UTC
Success.  Appending data.
Request city: seoul at 03/29/2019, 20:26:32
Response at 03/29/2019, 20:26:32
City: Seoul Country: KR Temp: 44.62 Humidity: 75.0 Wind: 3.36 Cloud cover: 75.0 Lat: 37.57 Lng: 126.98 Indicated time:  03/30/2019, 03:10 UTC
Success.  Appending data.
Request city: uusikaupunki at 03/29/2019, 20:26:32
Response at 03/29/2019, 20:26:34
City: Uusikaupunki Country: FI Temp: 33.8 Humidity: 83.0 Wind: 5.82 Cloud cover: 36.0 Lat: 60.8 Lng: 21.41 Indicated time:  03/30/2019, 02:50 UTC
Success.  Appending data.
Request city: riacho de santana at 03/29/2019, 20:26:34
Response at 03/29/2019, 20:26:34
City: Riacho de Santana Country: BR Temp: 74.01 Humidity: 78.0 Wind: 11.41 Cloud cover: 8.0 Lat: -13.61 Lng: -42.94 Indicated time:  03/30/2019, 03:26 UTC
Success.  Appending data.
Request city: quelimane at 03/29/2019, 20:26:34
Response at 03/29/2019, 20:26:35
City: Quelimane Country: MZ Temp: 77.0 Humidity: 88.0 Wind: 5.37 Cloud cover: 0.0 Lat: -17.88 Lng: 36.89 Indicated time:  03/30/2019, 02:00 UTC
Success.  Appending data.
Request city: xapuri at 03/29/2019, 20:26:35
Response at 03/29/2019, 20:26:36
City: Xapuri Country: BR Temp: 75.99 Humidity: 84.0 Wind: 3.58 Cloud cover: 48.0 Lat: -10.65 Lng: -68.5 Indicated time:  03/30/2019, 03:26 UTC
Success.  Appending data.
Request city: altar at 03/29/2019, 20:26:36
Response at 03/29/2019, 20:26:37
City: Altar Country: MX Temp: 69.98 Humidity: 30.0 Wind: 8.01 Cloud cover: 0.0 Lat: 30.72 Lng: -111.84 Indicated time:  03/30/2019, 03:25 UTC
Success.  Appending data.
Request city: zelenikovo at 03/29/2019, 20:26:37
Response at 03/29/2019, 20:26:38
City: Zelenikovo Country: BG Temp: 41.2 Humidity: 74.0 Wind: 9.17 Cloud cover: 90.0 Lat: 41.66 Lng: 25.33 Indicated time:  03/30/2019, 03:20 UTC
Success.  Appending data.
Beginning data collection batch 16 at: 03/29/2019, 20:26:41
Request city: villazon at 03/29/2019, 20:26:42
HTTP Request Failed
Data does not meet criteria and will not be used.
Request city: mahajanga at 03/29/2019, 20:26:43
Response at 03/29/2019, 20:26:43
City: Mahajanga Country: MG Temp: 73.4 Humidity: 88.0 Wind: 2.24 Cloud cover: 20.0 Lat: -15.72 Lng: 46.32 Indicated time:  03/30/2019, 03:00 UTC
Success.  Appending data.
Request city: nichinan at 03/29/2019, 20:26:43
Response at 03/29/2019, 20:26:44
City: Nichinan Country: JP Temp: 68.0 Humidity: 64.0 Wind: 9.17 Cloud cover: 75.0 Lat: 31.65 Lng: 131.31 Indicated time:  03/30/2019, 03:22 UTC
Success.  Appending data.
Request city: katherine at 03/29/2019, 20:26:44
Response at 03/29/2019, 20:26:46
City: Katherine Country: AU Temp: 93.2 Humidity: 34.0 Wind: 6.93 Cloud cover: 0.0 Lat: -14.47 Lng: 132.26 Indicated time:  03/30/2019, 02:30 UTC
Success.  Appending data.
Request city: tocantinopolis at 03/29/2019, 20:26:46
HTTP Request Failed
Data does not meet criteria and will not be used.
Request city: colomiers at 03/29/2019, 20:26:49
Response at 03/29/2019, 20:26:49
City: Colomiers Country: FR Temp: 46.89 Humidity: 70.0 Wind: 14.99 Cloud cover: 0.0 Lat: 43.61 Lng: 1.33 Indicated time:  03/30/2019, 03:24 UTC
Success.  Appending data.
Request city: xalpatlahuac at 03/29/2019, 20:26:49
Response at 03/29/2019, 20:26:49
City: Xalpatlahuac Country: MX Temp: 57.99 Humidity: 81.0 Wind: 2.68 Cloud cover: 0.0 Lat: 17.47 Lng: -98.62 Indicated time:  03/30/2019, 03:26 UTC
Success.  Appending data.
Request city: ngukurr at 03/29/2019, 20:26:49
HTTP Request Failed
Data does not meet criteria and will not be used.
Request city: marystown at 03/29/2019, 20:26:49
Response at 03/29/2019, 20:26:50
City: Marystown Country: CA Temp: 32.25 Humidity: 95.0 Wind: 17.67 Cloud cover: 32.0 Lat: 47.17 Lng: -55.16 Indicated time:  03/30/2019, 03:26 UTC
Success.  Appending data.
Request city: mogadouro at 03/29/2019, 20:26:50
Response at 03/29/2019, 20:26:50
City: Mogadouro Country: PT Temp: 35.31 Humidity: 80.0 Wind: 2.35 Cloud cover: 0.0 Lat: 41.34 Lng: -6.71 Indicated time:  03/30/2019, 03:26 UTC
Success.  Appending data.
Request city: ondorhaan at 03/29/2019, 20:26:50
HTTP Request Failed
Data does not meet criteria and will not be used.
Request city: jurm at 03/29/2019, 20:26:50
Response at 03/29/2019, 20:26:51
City: Jurm Country: AF Temp: 24.42 Humidity: 90.0 Wind: 1.68 Cloud cover: 88.0 Lat: 36.86 Lng: 70.83 Indicated time:  03/30/2019, 03:26 UTC
Success.  Appending data.
Request city: gizo at 03/29/2019, 20:26:51
Response at 03/29/2019, 20:26:51
City: Gizo Country: IL Temp: 57.27 Humidity: 82.0 Wind: 5.82 Cloud cover: 40.0 Lat: 31.8 Lng: 34.94 Indicated time:  03/30/2019, 03:26 UTC
Success.  Appending data.
Request city: san bartolome de tirajana at 03/29/2019, 20:26:51
HTTP Request Failed
Data does not meet criteria and will not be used.
Request city: longlac at 03/29/2019, 20:26:51
HTTP Request Failed
Data does not meet criteria and will not be used.
Request city: iisalmi at 03/29/2019, 20:26:51
Response at 03/29/2019, 20:26:52
City: Iisalmi Country: FI Temp: 32.0 Humidity: 72.0 Wind: 11.41 Cloud cover: 0.0 Lat: 63.56 Lng: 27.19 Indicated time:  03/30/2019, 02:50 UTC
Success.  Appending data.
Request city: sopelana at 03/29/2019, 20:26:52
Response at 03/29/2019, 20:26:52
City: Sopelana Country: ES Temp: 51.22 Humidity: 36.0 Wind: 9.17 Cloud cover: 0.0 Lat: 43.38 Lng: -2.98 Indicated time:  03/30/2019, 03:25 UTC
Success.  Appending data.
Request city: shamary at 03/29/2019, 20:26:52
Response at 03/29/2019, 20:26:52
City: Shamary Country: RU Temp: 30.72 Humidity: 86.0 Wind: 15.43 Cloud cover: 88.0 Lat: 57.34 Lng: 58.22 Indicated time:  03/30/2019, 03:26 UTC
Success.  Appending data.
Request city: merauke at 03/29/2019, 20:26:52
Response at 03/29/2019, 20:26:53
City: Merauke Country: ID Temp: 83.37 Humidity: 88.0 Wind: 12.75 Cloud cover: 76.0 Lat: -8.49 Lng: 140.4 Indicated time:  03/30/2019, 03:26 UTC
Success.  Appending data.
Request city: mortka at 03/29/2019, 20:26:53
Response at 03/29/2019, 20:26:53
City: Mortka Country: RU Temp: 33.06 Humidity: 92.0 Wind: 5.93 Cloud cover: 24.0 Lat: 59.33 Lng: 66.02 Indicated time:  03/30/2019, 03:26 UTC
Success.  Appending data.
Beginning data collection batch 17 at: 03/29/2019, 20:26:56
Request city: sakakah at 03/29/2019, 20:26:57
HTTP Request Failed
Data does not meet criteria and will not be used.
Request city: colesberg at 03/29/2019, 20:26:58
Response at 03/29/2019, 20:26:58
City: Colesberg Country: ZA Temp: 48.54 Humidity: 68.0 Wind: 2.01 Cloud cover: 0.0 Lat: -30.72 Lng: 25.1 Indicated time:  03/30/2019, 03:26 UTC
Success.  Appending data.
Request city: mandan at 03/29/2019, 20:26:58
Response at 03/29/2019, 20:26:58
City: Mandan Country: US Temp: 30.61 Humidity: 86.0 Wind: 16.11 Cloud cover: 40.0 Lat: 46.83 Lng: -100.89 Indicated time:  03/30/2019, 03:23 UTC
Success.  Appending data.
Request city: languyan at 03/29/2019, 20:26:58
Response at 03/29/2019, 20:26:58
City: Languyan Country: FR Temp: 42.22 Humidity: 93.0 Wind: 2.24 Cloud cover: 0.0 Lat: 48.3 Lng: -3.83 Indicated time:  03/30/2019, 03:23 UTC
Success.  Appending data.
Request city: tommot at 03/29/2019, 20:26:58
Response at 03/29/2019, 20:26:59
City: Tommot Country: RU Temp: 21.36 Humidity: 58.0 Wind: 3.58 Cloud cover: 0.0 Lat: 58.97 Lng: 126.27 Indicated time:  03/30/2019, 03:26 UTC
Success.  Appending data.
Request city: siaya at 03/29/2019, 20:26:59
Response at 03/29/2019, 20:26:59
City: Siaya Country: KE Temp: 67.62 Humidity: 100.0 Wind: 4.36 Cloud cover: 12.0 Lat: 0.06 Lng: 34.29 Indicated time:  03/30/2019, 03:26 UTC
Success.  Appending data.
Request city: florian at 03/29/2019, 20:26:59
Response at 03/29/2019, 20:26:59
City: Florian Country: US Temp: 26.04 Humidity: 53.0 Wind: 13.87 Cloud cover: 1.0 Lat: 48.44 Lng: -96.63 Indicated time:  03/30/2019, 03:16 UTC
Success.  Appending data.
Request city: pingdu at 03/29/2019, 20:26:59
Response at 03/29/2019, 20:27:00
City: Pingdu Country: CN Temp: 48.2 Humidity: 31.0 Wind: 17.9 Cloud cover: 0.0 Lat: 36.79 Lng: 119.95 Indicated time:  03/30/2019, 02:00 UTC
Success.  Appending data.
Request city: pella at 03/29/2019, 20:27:00
Response at 03/29/2019, 20:27:00
City: Pella Country: US Temp: 39.74 Humidity: 93.0 Wind: 8.05 Cloud cover: 90.0 Lat: 41.41 Lng: -92.92 Indicated time:  03/30/2019, 03:26 UTC
Success.  Appending data.
Request city: nantucket at 03/29/2019, 20:27:00
Response at 03/29/2019, 20:27:01
City: Nantucket Country: US Temp: 44.51 Humidity: 87.0 Wind: 8.05 Cloud cover: 75.0 Lat: 41.28 Lng: -70.1 Indicated time:  03/30/2019, 03:26 UTC
Success.  Appending data.
Request city: juayua at 03/29/2019, 20:27:01
Response at 03/29/2019, 20:27:01
City: Juayua Country: SV Temp: 70.39 Humidity: 83.0 Wind: 2.24 Cloud cover: 0.0 Lat: 13.84 Lng: -89.75 Indicated time:  03/30/2019, 02:50 UTC
Success.  Appending data.
Request city: colorines at 03/29/2019, 20:27:01
Response at 03/29/2019, 20:27:01
City: Colorines Country: MX Temp: 54.57 Humidity: 81.0 Wind: 1.68 Cloud cover: 0.0 Lat: 18.88 Lng: -96.98 Indicated time:  03/30/2019, 03:27 UTC
Success.  Appending data.
Request city: tanjong sepat at 03/29/2019, 20:27:01
HTTP Request Failed
Data does not meet criteria and will not be used.
Request city: meshcherino at 03/29/2019, 20:27:01
Response at 03/29/2019, 20:27:02
City: Meshcherino Country: RU Temp: 36.39 Humidity: 93.0 Wind: 6.71 Cloud cover: 75.0 Lat: 55.2 Lng: 38.36 Indicated time:  03/30/2019, 03:25 UTC
Success.  Appending data.
Request city: ha tinh at 03/29/2019, 20:27:02
Response at 03/29/2019, 20:27:03
City: Ha Tinh Country: VN Temp: 76.35 Humidity: 100.0 Wind: 6.04 Cloud cover: 8.0 Lat: 18.33 Lng: 105.9 Indicated time:  03/30/2019, 03:27 UTC
Success.  Appending data.
Request city: kembolcha at 03/29/2019, 20:27:03
HTTP Request Failed
Data does not meet criteria and will not be used.
Request city: tandil at 03/29/2019, 20:27:04
Response at 03/29/2019, 20:27:04
City: Tandil Country: AR Temp: 63.5 Humidity: 94.0 Wind: 5.01 Cloud cover: 0.0 Lat: -37.33 Lng: -59.14 Indicated time:  03/30/2019, 03:15 UTC
Success.  Appending data.
Request city: umba at 03/29/2019, 20:27:04
Response at 03/29/2019, 20:27:04
City: Umba Country: RU Temp: 27.84 Humidity: 80.0 Wind: 14.54 Cloud cover: 0.0 Lat: 66.69 Lng: 34.34 Indicated time:  03/30/2019, 03:27 UTC
Success.  Appending data.
Request city: peci at 03/29/2019, 20:27:04
Response at 03/29/2019, 20:27:04
City: Peci Country: BA Temp: 33.91 Humidity: 86.0 Wind: 4.7 Cloud cover: 0.0 Lat: 44.63 Lng: 16.79 Indicated time:  03/30/2019, 03:20 UTC
Success.  Appending data.
Request city: fuerte olimpo at 03/29/2019, 20:27:04
Response at 03/29/2019, 20:27:05
City: Fuerte Olimpo Country: BR Temp: 75.45 Humidity: 84.0 Wind: 2.91 Cloud cover: 0.0 Lat: -21.04 Lng: -57.87 Indicated time:  03/30/2019, 03:27 UTC
Success.  Appending data.
Beginning data collection batch 18 at: 03/29/2019, 20:27:08
Request city: wuwei at 03/29/2019, 20:27:09
Response at 03/29/2019, 20:27:10
City: Wuwei Country: CN Temp: 39.81 Humidity: 40.0 Wind: 3.91 Cloud cover: 0.0 Lat: 37.93 Lng: 102.64 Indicated time:  03/30/2019, 03:27 UTC
Success.  Appending data.
Request city: prachuap khiri khan at 03/29/2019, 20:27:10
Response at 03/29/2019, 20:27:11
City: Prachuap Khiri Khan Country: TH Temp: 85.17 Humidity: 72.0 Wind: 2.91 Cloud cover: 8.0 Lat: 11.81 Lng: 99.79 Indicated time:  03/30/2019, 03:27 UTC
Success.  Appending data.
Request city: elko at 03/29/2019, 20:27:11
Response at 03/29/2019, 20:27:11
City: Elko Country: US Temp: 33.73 Humidity: 69.0 Wind: 5.82 Cloud cover: 1.0 Lat: 40.83 Lng: -115.76 Indicated time:  03/30/2019, 03:24 UTC
Success.  Appending data.
Request city: tuensang at 03/29/2019, 20:27:11
Response at 03/29/2019, 20:27:12
City: Tuensang Country: IN Temp: 74.64 Humidity: 47.0 Wind: 2.35 Cloud cover: 44.0 Lat: 26.24 Lng: 94.81 Indicated time:  03/30/2019, 03:27 UTC
Success.  Appending data.
Request city: gazojak at 03/29/2019, 20:27:12
Response at 03/29/2019, 20:27:13
City: Gazojak Country: TM Temp: 42.24 Humidity: 81.0 Wind: 7.61 Cloud cover: 12.0 Lat: 41.19 Lng: 61.4 Indicated time:  03/30/2019, 03:27 UTC
Success.  Appending data.
Request city: dabat at 03/29/2019, 20:27:13
Response at 03/29/2019, 20:27:13
City: Dabat Country: ET Temp: 51.33 Humidity: 81.0 Wind: 2.8 Cloud cover: 0.0 Lat: 12.98 Lng: 37.77 Indicated time:  03/30/2019, 03:27 UTC
Success.  Appending data.
Request city: goose creek at 03/29/2019, 20:27:13
Response at 03/29/2019, 20:27:14
City: Goose Creek Country: US Temp: 55.98 Humidity: 82.0 Wind: 5.82 Cloud cover: 90.0 Lat: 38.32 Lng: -85.65 Indicated time:  03/30/2019, 03:27 UTC
Success.  Appending data.
Request city: beeville at 03/29/2019, 20:27:14
Response at 03/29/2019, 20:27:15
City: Beeville Country: US Temp: 69.08 Humidity: 77.0 Wind: 8.05 Cloud cover: 1.0 Lat: 28.4 Lng: -97.75 Indicated time:  03/30/2019, 03:25 UTC
Success.  Appending data.
Request city: wick at 03/29/2019, 20:27:15
Response at 03/29/2019, 20:27:16
City: Wick Country: GB Temp: 38.03 Humidity: 100.0 Wind: 2.24 Cloud cover: 20.0 Lat: 51.45 Lng: -2.43 Indicated time:  03/30/2019, 03:27 UTC
Success.  Appending data.
Request city: palekh at 03/29/2019, 20:27:16
Response at 03/29/2019, 20:27:17
City: Palekh Country: RU Temp: 34.41 Humidity: 94.0 Wind: 15.66 Cloud cover: 92.0 Lat: 56.8 Lng: 41.85 Indicated time:  03/30/2019, 03:27 UTC
Success.  Appending data.
Request city: savinka at 03/29/2019, 20:27:17
Response at 03/29/2019, 20:27:18
City: Savinka Country: RU Temp: 29.46 Humidity: 85.0 Wind: 4.47 Cloud cover: 48.0 Lat: 50.08 Lng: 47.1 Indicated time:  03/30/2019, 03:27 UTC
Success.  Appending data.
Request city: jampur at 03/29/2019, 20:27:18
Response at 03/29/2019, 20:27:19
City: Jampur Country: PK Temp: 70.05 Humidity: 38.0 Wind: 11.41 Cloud cover: 0.0 Lat: 29.64 Lng: 70.6 Indicated time:  03/30/2019, 03:27 UTC
Success.  Appending data.
Request city: luang prabang at 03/29/2019, 20:27:19
Response at 03/29/2019, 20:27:19
City: Luang Prabang Country: LA Temp: 68.0 Humidity: 77.0 Wind: 2.24 Cloud cover: 75.0 Lat: 19.89 Lng: 102.14 Indicated time:  03/30/2019, 02:00 UTC
Success.  Appending data.
Request city: ust-uda at 03/29/2019, 20:27:19
Response at 03/29/2019, 20:27:21
City: Ust-Uda Country: RU Temp: 30.9 Humidity: 79.0 Wind: 3.02 Cloud cover: 56.0 Lat: 54.17 Lng: 103.03 Indicated time:  03/30/2019, 03:27 UTC
Success.  Appending data.
Request city: lavrentiya at 03/29/2019, 20:27:21
Response at 03/29/2019, 20:27:21
City: Lavrentiya Country: RU Temp: 33.78 Humidity: 91.0 Wind: 26.06 Cloud cover: 92.0 Lat: 65.58 Lng: -170.99 Indicated time:  03/30/2019, 03:27 UTC
Success.  Appending data.
Request city: kyabram at 03/29/2019, 20:27:21
Response at 03/29/2019, 20:27:23
City: Kyabram Country: AU Temp: 57.0 Humidity: 48.0 Wind: 19.24 Cloud cover: 24.0 Lat: -36.31 Lng: 145.05 Indicated time:  03/30/2019, 03:14 UTC
Success.  Appending data.
Request city: kostomuksha at 03/29/2019, 20:27:23
Response at 03/29/2019, 20:27:24
City: Kostomuksha Country: RU Temp: 28.83 Humidity: 67.0 Wind: 8.72 Cloud cover: 0.0 Lat: 64.59 Lng: 30.6 Indicated time:  03/30/2019, 03:27 UTC
Success.  Appending data.
Request city: terra roxa at 03/29/2019, 20:27:24
Response at 03/29/2019, 20:27:24
City: Terra Roxa Country: BR Temp: 71.6 Humidity: 73.0 Wind: 6.93 Cloud cover: 0.0 Lat: -20.79 Lng: -48.33 Indicated time:  03/30/2019, 03:00 UTC
Success.  Appending data.
Request city: jawa at 03/29/2019, 20:27:24
Response at 03/29/2019, 20:27:25
City: Jawa Country: NG Temp: 72.48 Humidity: 26.0 Wind: 9.17 Cloud cover: 0.0 Lat: 12.81 Lng: 11.04 Indicated time:  03/30/2019, 03:27 UTC
Success.  Appending data.
Request city: kasongo-lunda at 03/29/2019, 20:27:25
Response at 03/29/2019, 20:27:25
City: Kasongo-Lunda Country: CD Temp: 69.42 Humidity: 98.0 Wind: 2.46 Cloud cover: 76.0 Lat: -6.48 Lng: 16.82 Indicated time:  03/30/2019, 03:27 UTC
Success.  Appending data.
Beginning data collection batch 19 at: 03/29/2019, 20:27:28
Request city: nakhon thai at 03/29/2019, 20:27:29
Response at 03/29/2019, 20:27:31
City: Nakhon Thai Country: TH Temp: 84.29 Humidity: 48.0 Wind: 3.36 Cloud cover: 20.0 Lat: 17.1 Lng: 100.84 Indicated time:  03/30/2019, 02:00 UTC
Success.  Appending data.
Request city: bidor at 03/29/2019, 20:27:31
Response at 03/29/2019, 20:27:31
City: Bidor Country: MY Temp: 85.6 Humidity: 74.0 Wind: 3.36 Cloud cover: 75.0 Lat: 4.11 Lng: 101.29 Indicated time:  03/30/2019, 03:00 UTC
Success.  Appending data.
Request city: luzhou at 03/29/2019, 20:27:31
Response at 03/29/2019, 20:27:32
City: Luzhou Country: CN Temp: 67.26 Humidity: 55.0 Wind: 6.38 Cloud cover: 92.0 Lat: 28.89 Lng: 105.45 Indicated time:  03/30/2019, 03:27 UTC
Success.  Appending data.
Request city: calbuco at 03/29/2019, 20:27:32
Response at 03/29/2019, 20:27:34
City: Calbuco Country: CL Temp: 53.6 Humidity: 87.0 Wind: 9.17 Cloud cover: 90.0 Lat: -41.77 Lng: -73.13 Indicated time:  03/30/2019, 02:00 UTC
Success.  Appending data.
Request city: ereymentau at 03/29/2019, 20:27:34
Response at 03/29/2019, 20:27:35
City: Ereymentau Country: KZ Temp: 36.39 Humidity: 96.0 Wind: 12.64 Cloud cover: 76.0 Lat: 51.62 Lng: 73.1 Indicated time:  03/30/2019, 03:27 UTC
Success.  Appending data.
Request city: diapaga at 03/29/2019, 20:27:35
Response at 03/29/2019, 20:27:35
City: Diapaga Country: BF Temp: 72.93 Humidity: 50.0 Wind: 2.57 Cloud cover: 0.0 Lat: 12.07 Lng: 1.79 Indicated time:  03/30/2019, 03:27 UTC
Success.  Appending data.
Request city: yuzhno-yeniseyskiy at 03/29/2019, 20:27:35
HTTP Request Failed
Data does not meet criteria and will not be used.
Request city: glendive at 03/29/2019, 20:27:35
Response at 03/29/2019, 20:27:36
City: Glendive Country: US Temp: 30.2 Humidity: 80.0 Wind: 8.05 Cloud cover: 20.0 Lat: 47.11 Lng: -104.71 Indicated time:  03/30/2019, 02:56 UTC
Success.  Appending data.
Request city: manggar at 03/29/2019, 20:27:36
Response at 03/29/2019, 20:27:36
City: Manggar Country: ID Temp: 85.98 Humidity: 93.0 Wind: 3.91 Cloud cover: 20.0 Lat: -2.88 Lng: 108.27 Indicated time:  03/30/2019, 03:27 UTC
Success.  Appending data.
Request city: oktyabrskiy at 03/29/2019, 20:27:36
Response at 03/29/2019, 20:27:37
City: Oktyabrskiy Country: RU Temp: 36.73 Humidity: 93.0 Wind: 6.71 Cloud cover: 75.0 Lat: 55.61 Lng: 37.97 Indicated time:  03/30/2019, 03:25 UTC
Success.  Appending data.
Request city: orapa at 03/29/2019, 20:27:37
Response at 03/29/2019, 20:27:37
City: Orapa Country: BW Temp: 77.16 Humidity: 41.0 Wind: 13.09 Cloud cover: 68.0 Lat: -21.28 Lng: 25.37 Indicated time:  03/30/2019, 03:27 UTC
Success.  Appending data.
Request city: mar del plata at 03/29/2019, 20:27:37
Response at 03/29/2019, 20:27:38
City: Mar del Plata Country: AR Temp: 60.33 Humidity: 56.0 Wind: 12.41 Cloud cover: 0.0 Lat: -46.43 Lng: -67.52 Indicated time:  03/30/2019, 03:26 UTC
Success.  Appending data.
Request city: xian at 03/29/2019, 20:27:38
Response at 03/29/2019, 20:27:38
City: Xian Country: ES Temp: 47.39 Humidity: 65.0 Wind: 5.82 Cloud cover: 0.0 Lat: 42.76 Lng: -8.49 Indicated time:  03/30/2019, 03:25 UTC
Success.  Appending data.
Request city: kodiak at 03/29/2019, 20:27:38
Response at 03/29/2019, 20:27:38
City: Kodiak Country: US Temp: 41.23 Humidity: 93.0 Wind: 17.22 Cloud cover: 90.0 Lat: 39.95 Lng: -94.76 Indicated time:  03/30/2019, 03:19 UTC
Success.  Appending data.
Request city: panuco at 03/29/2019, 20:27:38
Response at 03/29/2019, 20:27:39
City: Panuco Country: MX Temp: 68.0 Humidity: 10.0 Wind: 1.68 Cloud cover: 5.0 Lat: 22.88 Lng: -102.54 Indicated time:  03/30/2019, 02:47 UTC
Success.  Appending data.
Request city: asyut at 03/29/2019, 20:27:39
Response at 03/29/2019, 20:27:39
City: Asyut Country: EG Temp: 62.6 Humidity: 51.0 Wind: 11.41 Cloud cover: 40.0 Lat: 27.18 Lng: 31.19 Indicated time:  03/30/2019, 02:00 UTC
Success.  Appending data.
Request city: rolim de moura at 03/29/2019, 20:27:39
HTTP Request Failed
Data does not meet criteria and will not be used.
Request city: nakamura at 03/29/2019, 20:27:40
Response at 03/29/2019, 20:27:40
City: Nakamura Country: JP Temp: 59.31 Humidity: 71.0 Wind: 3.36 Cloud cover: 75.0 Lat: 35.17 Lng: 136.87 Indicated time:  03/30/2019, 03:27 UTC
Success.  Appending data.
Request city: trincomalee at 03/29/2019, 20:27:40
Response at 03/29/2019, 20:27:41
City: Trincomalee Country: LK Temp: 81.84 Humidity: 67.0 Wind: 4.59 Cloud cover: 0.0 Lat: 8.58 Lng: 81.23 Indicated time:  03/30/2019, 03:27 UTC
Success.  Appending data.
Request city: asosa at 03/29/2019, 20:27:41
Response at 03/29/2019, 20:27:41
City: Asosa Country: ET Temp: 59.07 Humidity: 57.0 Wind: 2.57 Cloud cover: 0.0 Lat: 10.07 Lng: 34.53 Indicated time:  03/30/2019, 03:27 UTC
Success.  Appending data.
Beginning data collection batch 20 at: 03/29/2019, 20:27:44
Request city: swan river at 03/29/2019, 20:27:45
Response at 03/29/2019, 20:27:46
City: Swan River Country: CA Temp: 24.78 Humidity: 55.0 Wind: 5.7 Cloud cover: 20.0 Lat: 52.11 Lng: -101.27 Indicated time:  03/30/2019, 03:27 UTC
Success.  Appending data.
Request city: huarmey at 03/29/2019, 20:27:46
Response at 03/29/2019, 20:27:46
City: Huarmey Country: PE Temp: 66.36 Humidity: 81.0 Wind: 2.91 Cloud cover: 64.0 Lat: -10.07 Lng: -78.15 Indicated time:  03/30/2019, 03:27 UTC
Success.  Appending data.
Request city: mbour at 03/29/2019, 20:27:46
Response at 03/29/2019, 20:27:47
City: MBour Country: SN Temp: 67.19 Humidity: 82.0 Wind: 20.8 Cloud cover: 20.0 Lat: 14.41 Lng: -16.97 Indicated time:  03/30/2019, 03:00 UTC
Success.  Appending data.
Request city: high rock at 03/29/2019, 20:27:47
Response at 03/29/2019, 20:27:50
City: High Rock Country: BS Temp: 72.75 Humidity: 100.0 Wind: 15.66 Cloud cover: 92.0 Lat: 26.63 Lng: -78.28 Indicated time:  03/30/2019, 03:27 UTC
Success.  Appending data.
Request city: wangaratta at 03/29/2019, 20:27:50
Response at 03/29/2019, 20:27:50
City: Wangaratta Country: AU Temp: 51.37 Humidity: 58.0 Wind: 23.04 Cloud cover: 90.0 Lat: -36.36 Lng: 146.32 Indicated time:  03/30/2019, 03:20 UTC
Success.  Appending data.
Request city: amlame at 03/29/2019, 20:27:50
Response at 03/29/2019, 20:27:51
City: Amlame Country: TG Temp: 76.17 Humidity: 83.0 Wind: 6.38 Cloud cover: 8.0 Lat: 7.47 Lng: 0.9 Indicated time:  03/30/2019, 03:27 UTC
Success.  Appending data.
Request city: bataipora at 03/29/2019, 20:27:51
Response at 03/29/2019, 20:27:51
City: Bataipora Country: BR Temp: 73.74 Humidity: 67.0 Wind: 7.27 Cloud cover: 0.0 Lat: -22.3 Lng: -53.27 Indicated time:  03/30/2019, 03:27 UTC
Success.  Appending data.
Request city: upernavik at 03/29/2019, 20:27:51
Response at 03/29/2019, 20:27:52
City: Upernavik Country: GL Temp: 8.4 Humidity: 93.0 Wind: 9.4 Cloud cover: 12.0 Lat: 72.79 Lng: -56.15 Indicated time:  03/30/2019, 03:27 UTC
Success.  Appending data.
Request city: imperia at 03/29/2019, 20:27:52
Response at 03/29/2019, 20:27:52
City: Imperia Country: IT Temp: 44.87 Humidity: 53.0 Wind: 13.87 Cloud cover: 0.0 Lat: 43.88 Lng: 8.02 Indicated time:  03/30/2019, 03:26 UTC
Success.  Appending data.
Request city: monterey at 03/29/2019, 20:27:52
Response at 03/29/2019, 20:27:53
City: Monterey Country: US Temp: 53.33 Humidity: 71.0 Wind: 5.82 Cloud cover: 1.0 Lat: 36.6 Lng: -121.89 Indicated time:  03/30/2019, 03:27 UTC
Success.  Appending data.
Request city: douglas at 03/29/2019, 20:27:53
Response at 03/29/2019, 20:27:53
City: Douglas Country: US Temp: 47.19 Humidity: 61.0 Wind: 3.36 Cloud cover: 20.0 Lat: 58.28 Lng: -134.39 Indicated time:  03/30/2019, 02:56 UTC
Success.  Appending data.
Request city: raca at 03/29/2019, 20:27:53
Response at 03/29/2019, 20:27:55
City: Raca Country: RS Temp: 32.0 Humidity: 73.0 Wind: 1.12 Cloud cover: 0.0 Lat: 44.23 Lng: 20.98 Indicated time:  03/30/2019, 03:00 UTC
Success.  Appending data.
Request city: bira at 03/29/2019, 20:27:55
Response at 03/29/2019, 20:27:56
City: Bira Country: RU Temp: 28.29 Humidity: 38.0 Wind: 1.57 Cloud cover: 8.0 Lat: 49.0 Lng: 132.47 Indicated time:  03/30/2019, 03:27 UTC
Success.  Appending data.
Request city: kyren at 03/29/2019, 20:27:56
Response at 03/29/2019, 20:27:57
City: Kyren Country: RU Temp: 23.88 Humidity: 65.0 Wind: 2.57 Cloud cover: 0.0 Lat: 51.68 Lng: 102.13 Indicated time:  03/30/2019, 03:27 UTC
Success.  Appending data.
Request city: sulina at 03/29/2019, 20:27:57
HTTP Request Failed
Data does not meet criteria and will not be used.
Request city: williams lake at 03/29/2019, 20:27:58
Response at 03/29/2019, 20:27:59
City: Williams Lake Country: CA Temp: 51.8 Humidity: 25.0 Wind: 3.36 Cloud cover: 20.0 Lat: 52.13 Lng: -122.14 Indicated time:  03/30/2019, 02:00 UTC
Success.  Appending data.
Request city: pemba at 03/29/2019, 20:27:59
Response at 03/29/2019, 20:27:59
City: Pemba Country: MZ Temp: 75.2 Humidity: 94.0 Wind: 5.82 Cloud cover: 20.0 Lat: -12.97 Lng: 40.52 Indicated time:  03/30/2019, 03:00 UTC
Success.  Appending data.
Request city: tevriz at 03/29/2019, 20:27:59
Response at 03/29/2019, 20:28:00
City: Tevriz Country: RU Temp: 34.23 Humidity: 98.0 Wind: 5.14 Cloud cover: 92.0 Lat: 57.51 Lng: 72.4 Indicated time:  03/30/2019, 03:28 UTC
Success.  Appending data.
Request city: hella at 03/29/2019, 20:28:00
Response at 03/29/2019, 20:28:00
City: Hella Country: IS Temp: 27.21 Humidity: 100.0 Wind: 10.29 Cloud cover: 0.0 Lat: 63.84 Lng: -20.4 Indicated time:  03/30/2019, 03:28 UTC
Success.  Appending data.
Request city: baoning at 03/29/2019, 20:28:00
Response at 03/29/2019, 20:28:01
City: Baoning Country: CN Temp: 69.8 Humidity: 68.0 Wind: 4.59 Cloud cover: 75.0 Lat: 25.34 Lng: 110.03 Indicated time:  03/30/2019, 02:00 UTC
Success.  Appending data.
Beginning data collection batch 21 at: 03/29/2019, 20:28:04
Request city: chesma at 03/29/2019, 20:28:05
Response at 03/29/2019, 20:28:06
City: Chesma Country: RU Temp: 24.24 Humidity: 85.0 Wind: 12.19 Cloud cover: 12.0 Lat: 53.81 Lng: 60.65 Indicated time:  03/30/2019, 03:28 UTC
Success.  Appending data.
Request city: didwana at 03/29/2019, 20:28:06
Response at 03/29/2019, 20:28:07
City: Didwana Country: IN Temp: 81.03 Humidity: 36.0 Wind: 4.7 Cloud cover: 0.0 Lat: 27.4 Lng: 74.58 Indicated time:  03/30/2019, 03:28 UTC
Success.  Appending data.
Request city: road town at 03/29/2019, 20:28:07
Response at 03/29/2019, 20:28:07
City: Road Town Country: VG Temp: 76.8 Humidity: 78.0 Wind: 3.36 Cloud cover: 1.0 Lat: 18.42 Lng: -64.62 Indicated time:  03/30/2019, 03:27 UTC
Success.  Appending data.
Request city: damietta at 03/29/2019, 20:28:07
Response at 03/29/2019, 20:28:08
City: Damietta Country: EG Temp: 60.8 Humidity: 82.0 Wind: 17.22 Cloud cover: 0.0 Lat: 31.42 Lng: 31.81 Indicated time:  03/30/2019, 02:00 UTC
Success.  Appending data.
Request city: gat at 03/29/2019, 20:28:08
Response at 03/29/2019, 20:28:08
City: Gat Country: SN Temp: 66.2 Humidity: 82.0 Wind: 20.8 Cloud cover: 20.0 Lat: 14.69 Lng: -16.54 Indicated time:  03/30/2019, 03:00 UTC
Success.  Appending data.
Request city: kommunisticheskiy at 03/29/2019, 20:28:08
Response at 03/29/2019, 20:28:09
City: Kommunisticheskiy Country: RU Temp: 30.0 Humidity: 92.0 Wind: 7.49 Cloud cover: 76.0 Lat: 61.68 Lng: 64.48 Indicated time:  03/30/2019, 03:28 UTC
Success.  Appending data.
Request city: djougou at 03/29/2019, 20:28:09
Response at 03/29/2019, 20:28:10
City: Djougou Country: BJ Temp: 81.21 Humidity: 58.0 Wind: 9.95 Cloud cover: 80.0 Lat: 9.71 Lng: 1.67 Indicated time:  03/30/2019, 03:28 UTC
Success.  Appending data.
Request city: bolungarvik at 03/29/2019, 20:28:10
HTTP Request Failed
Data does not meet criteria and will not be used.
Request city: kapchorwa at 03/29/2019, 20:28:11
Response at 03/29/2019, 20:28:11
City: Kapchorwa Country: UG Temp: 55.92 Humidity: 85.0 Wind: 2.68 Cloud cover: 8.0 Lat: 1.4 Lng: 34.45 Indicated time:  03/30/2019, 03:27 UTC
Success.  Appending data.
Request city: tigzirt at 03/29/2019, 20:28:11
Response at 03/29/2019, 20:28:12
City: Tigzirt Country: DZ Temp: 51.01 Humidity: 88.0 Wind: 1.99 Cloud cover: 12.0 Lat: 36.57 Lng: 4.2 Indicated time:  03/30/2019, 03:26 UTC
Success.  Appending data.
Request city: karema at 03/29/2019, 20:28:12
Response at 03/29/2019, 20:28:13
City: Karema Country: TZ Temp: 62.22 Humidity: 93.0 Wind: 2.13 Cloud cover: 32.0 Lat: -6.82 Lng: 30.44 Indicated time:  03/30/2019, 03:28 UTC
Success.  Appending data.
Request city: fochville at 03/29/2019, 20:28:13
Response at 03/29/2019, 20:28:14
City: Fochville Country: ZA Temp: 60.49 Humidity: 65.0 Wind: 1.99 Cloud cover: 0.0 Lat: -26.49 Lng: 27.49 Indicated time:  03/30/2019, 03:24 UTC
Success.  Appending data.
Request city: marang at 03/29/2019, 20:28:14
HTTP Request Failed
Data does not meet criteria and will not be used.
Request city: maykain at 03/29/2019, 20:28:16
HTTP Request Failed
Data does not meet criteria and will not be used.
Request city: karasuk at 03/29/2019, 20:28:16
Response at 03/29/2019, 20:28:16
City: Karasuk Country: RU Temp: 35.85 Humidity: 96.0 Wind: 12.64 Cloud cover: 76.0 Lat: 53.73 Lng: 78.03 Indicated time:  03/30/2019, 03:28 UTC
Success.  Appending data.
Request city: port-gentil at 03/29/2019, 20:28:16
Response at 03/29/2019, 20:28:17
City: Port-Gentil Country: GA Temp: 81.75 Humidity: 98.0 Wind: 7.61 Cloud cover: 44.0 Lat: -0.72 Lng: 8.78 Indicated time:  03/30/2019, 03:28 UTC
Success.  Appending data.
Request city: dong xoai at 03/29/2019, 20:28:17
Response at 03/29/2019, 20:28:18
City: Dong Xoai Country: VN Temp: 86.34 Humidity: 74.0 Wind: 4.47 Cloud cover: 0.0 Lat: 11.53 Lng: 106.92 Indicated time:  03/30/2019, 03:28 UTC
Success.  Appending data.
Request city: hammerfest at 03/29/2019, 20:28:18
Response at 03/29/2019, 20:28:20
City: Hammerfest Country: NO Temp: 32.0 Humidity: 100.0 Wind: 41.38 Cloud cover: 88.0 Lat: 70.66 Lng: 23.68 Indicated time:  03/30/2019, 02:50 UTC
Success.  Appending data.
Request city: maningrida at 03/29/2019, 20:28:20
Response at 03/29/2019, 20:28:21
City: Maningrida Country: AU Temp: 87.6 Humidity: 88.0 Wind: 4.81 Cloud cover: 0.0 Lat: -12.05 Lng: 134.23 Indicated time:  03/30/2019, 03:28 UTC
Success.  Appending data.
Request city: xingyi at 03/29/2019, 20:28:21
Response at 03/29/2019, 20:28:21
City: Xingyi Country: CN Temp: 68.7 Humidity: 48.0 Wind: 7.94 Cloud cover: 8.0 Lat: 24.19 Lng: 102.82 Indicated time:  03/30/2019, 03:28 UTC
Success.  Appending data.
Beginning data collection batch 22 at: 03/29/2019, 20:28:24
Request city: kashan at 03/29/2019, 20:28:25
Response at 03/29/2019, 20:28:26
City: Kashan Country: IR Temp: 53.6 Humidity: 62.0 Wind: 2.57 Cloud cover: 0.0 Lat: 33.99 Lng: 51.44 Indicated time:  03/30/2019, 02:00 UTC
Success.  Appending data.
Request city: yuty at 03/29/2019, 20:28:26
Response at 03/29/2019, 20:28:27
City: Yuty Country: PY Temp: 74.01 Humidity: 82.0 Wind: 3.36 Cloud cover: 0.0 Lat: -26.61 Lng: -56.25 Indicated time:  03/30/2019, 03:28 UTC
Success.  Appending data.
Request city: kyabe at 03/29/2019, 20:28:27
Response at 03/29/2019, 20:28:27
City: Kyabe Country: TD Temp: 69.33 Humidity: 52.0 Wind: 2.91 Cloud cover: 0.0 Lat: 9.45 Lng: 18.94 Indicated time:  03/30/2019, 03:28 UTC
Success.  Appending data.
Request city: kargat at 03/29/2019, 20:28:27
Response at 03/29/2019, 20:28:28
City: Kargat Country: RU Temp: 35.4 Humidity: 95.0 Wind: 12.64 Cloud cover: 88.0 Lat: 55.19 Lng: 80.28 Indicated time:  03/30/2019, 03:28 UTC
Success.  Appending data.
Request city: belfast at 03/29/2019, 20:28:28
Response at 03/29/2019, 20:28:29
City: Belfast Country: GB Temp: 47.62 Humidity: 87.0 Wind: 4.7 Cloud cover: 12.0 Lat: 54.6 Lng: -5.93 Indicated time:  03/30/2019, 03:25 UTC
Success.  Appending data.
Request city: hithadhoo at 03/29/2019, 20:28:29
Response at 03/29/2019, 20:28:30
City: Hithadhoo Country: MV Temp: 83.28 Humidity: 100.0 Wind: 3.58 Cloud cover: 12.0 Lat: -0.6 Lng: 73.08 Indicated time:  03/30/2019, 03:28 UTC
Success.  Appending data.
Request city: fougamou at 03/29/2019, 20:28:30
Response at 03/29/2019, 20:28:30
City: Fougamou Country: GA Temp: 75.18 Humidity: 96.0 Wind: 2.13 Cloud cover: 88.0 Lat: -1.22 Lng: 10.59 Indicated time:  03/30/2019, 03:28 UTC
Success.  Appending data.
Request city: chemainus at 03/29/2019, 20:28:30
